page|type|price|address_x|description|weblink|rooms|size|price2|1 zimmer|1.5 zimmer|13 zimmer|2 zimmer|2.5 zimmer|20 zimmer|3 zimmer|3.5 zimmer|4 zimmer|4.5 zimmer|5 zimmer|5.5 zimmer|6 zimmer|6.5 zimmer|7 zimmer|address_short_1|address_short_2|size_num|address_y|latitude|longitude|detail
2|4.5 Zimmer, 107m², CHF 3’082.– |3082|In der Looren 56, 8053 Zürich|Ihre neue Wohlfühloase|https://www.immoscout24.ch/de/immobilien/mieten/plz-8000-zuerich?pn=2/mieten/4001018762|4.5 Zimmer|107m²|CHF 3’082.– |0|0|0|0|0|0|0|0|0|1|0|0|0|0|0|In der Looren 56|8053 Zürich|107.0|In der Looren 56, 8053 Zürich|47.36455535888672|8.597229957580566|in der looren 56 8053 zuerich 261 zuerich ch zh
2|3.5 Zimmer, 77m², CHF 2’443.– |2443|Kügeliloostrasse 99, 8046 Zürich|Moderne Wohnung mit gemütlicher Loggia|https://www.immoscout24.ch/de/immobilien/mieten/plz-8000-zuerich?pn=2/mieten/4001018746|3.5 Zimmer|77m²|CHF 2’443.– |0|0|0|0|0|0|0|1|0|0|0|0|0|0|0|Kügeliloostrasse 99|8046 Zürich|77.0|Kügeliloostrasse 99, 8046 Zürich|47.41554641723633|8.530203819274902|kuegeliloostrasse 99 8046 zuerich 261 zuerich ch zh
2|4.5 Zimmer, 150m², CHF 5’850.– |5850|Wirzenweid 27, 8053 Zürich|Bright apartment with the view in a quiet neighborhood|https://www.immoscout24.ch/de/immobilien/mieten/plz-8000-zuerich?pn=2/mieten/4000996779|4.5 Zimmer|150m²|CHF 5’850.– |0|0|0|0|0|0|0|0|0|1|0|0|0|0|0|Wirzenweid 27|8053 Zürich|150.0|Wirzenweid 27, 8053 Zürich|47.357120513916016|8.58321475982666|wirzenweid 27 8053 zuerich 261 zuerich ch zh
2|5.5 Zimmer, CHF 5’500.– |5500|Lyrenweg, 8047 Zürich|Haus: In der Stadt Zürich und doch idyllisch|https://www.immoscout24.ch/de/immobilien/mieten/plz-8000-zuerich?pn=2/mieten/4000816406|5.5 Zimmer||CHF 5’500.– |0|0|0|0|0|0|0|0|0|0|0|1|0|0|0|Lyrenweg|8047 Zürich||Lyrenweg, 8047 Zürich|47.374351501464844|8.482234954833984|lyrenweg 1a 8047 zuerich 261 zuerich ch zh
2|3 Zimmer, 81m², CHF 2’610.– |2610|Röslistr. 57, 8006 Zürich|zentral gelegene Wohnung - Mieten ohne Kaution|https://www.immoscout24.ch/de/immobilien/mieten/plz-8000-zuerich?pn=2/mieten/4000934333|3 Zimmer|81m²|CHF 2’610.– |0|0|0|0|0|0|1|0|0|0|0|0|0|0|0|Röslistr. 57|8006 Zürich|81.0|Lyrenweg, 8047 Zürich|47.37428283691406|8.482403755187988|lyrenweg 1 8047 zuerich 261 zuerich ch zh
2|1.5 Zimmer, 25m², CHF 1’710.– |1710|Müllerstrasse 76, 8004 Zürich|Mitten in der Stadt Zürich!|https://www.immoscout24.ch/de/immobilien/mieten/plz-8000-zuerich?pn=2/mieten/4000937464|1.5 Zimmer|25m²|CHF 1’710.– |0|1|0|0|0|0|0|0|0|0|0|0|0|0|0|Müllerstrasse 76|8004 Zürich|25.0|Lyrenweg, 8047 Zürich|47.37428283691406|8.482293128967285|lyrenweg 1b 8047 zuerich 261 zuerich ch zh
2|3.5 Zimmer, 111m², CHF 3’839.– |3839|Staffelstrasse 5, 8045 Zürich|"Urbanes Wohnen im ""Secret Garden"""|https://www.immoscout24.ch/de/immobilien/mieten/plz-8000-zuerich?pn=2/mieten/4000937461|3.5 Zimmer|111m²|CHF 3’839.– |0|0|0|0|0|0|0|1|0|0|0|0|0|0|0|Staffelstrasse 5|8045 Zürich|111.0|Lyrenweg, 8047 Zürich|47.374515533447266|8.482388496398926|lyrenweg 2 8047 zuerich 261 zuerich ch zh
2|3.5 Zimmer, 65m², CHF 3’190.– |3190|Rolandstrasse 3, 8004 Zürich|Erstvermietung nach Totalsanierung (3.5  Zimmerwohnungen)|https://www.immoscout24.ch/de/immobilien/mieten/plz-8000-zuerich?pn=2/mieten/4000990823|3.5 Zimmer|65m²|CHF 3’190.– |0|0|0|0|0|0|0|1|0|0|0|0|0|0|0|Rolandstrasse 3|8004 Zürich|65.0|Lyrenweg, 8047 Zürich|47.37460708618164|8.482341766357422|lyrenweg 4 8047 zuerich 261 zuerich ch zh
2|2.5 Zimmer, 109m², CHF 4’280.– |4280|Naphtastr. 4, 8005 Zürich|Modernes Wohnen im Herzen von Zürich!|https://www.immoscout24.ch/de/immobilien/mieten/plz-8000-zuerich?pn=2/mieten/4000793124|2.5 Zimmer|109m²|CHF 4’280.– |0|0|0|0|1|0|0|0|0|0|0|0|0|0|0|Naphtastr. 4|8005 Zürich|109.0|Lyrenweg, 8047 Zürich|47.37462615966797|8.482161521911621|lyrenweg 6 8047 zuerich 261 zuerich ch zh
2|3.5 Zimmer, 75m², CHF 3’300.– |3300|Bucheggstrasse 21, 8037 Zürich|3.5 Zimmerwohnung in Wipkingen|https://www.immoscout24.ch/de/immobilien/mieten/plz-8000-zuerich?pn=2/mieten/4000861464|3.5 Zimmer|75m²|CHF 3’300.– |0|0|0|0|0|0|0|1|0|0|0|0|0|0|0|Bucheggstrasse 21|8037 Zürich|75.0|Lyrenweg, 8047 Zürich|47.374610900878906|8.481756210327148|lyrenweg 7 8047 zuerich 261 zuerich ch zh
2|3.5 Zimmer, 71m², CHF 2’590.– |2590|Winterthurerstrasse 295, 8057 Zürich|Zentrale 3.5 Zimmerwohnung ab 01.06.2024|https://www.immoscout24.ch/de/immobilien/mieten/plz-8000-zuerich?pn=2/mieten/4000990624|3.5 Zimmer|71m²|CHF 2’590.– |0|0|0|0|0|0|0|1|0|0|0|0|0|0|0|Winterthurerstrasse 295|8057 Zürich|71.0|Lyrenweg, 8047 Zürich|47.37471008300781|8.48205852508545|lyrenweg 8 8047 zuerich 261 zuerich ch zh
2|2.5 Zimmer, 56m², CHF 4’095.– |4095|Dienerstrasse 8, 8004 Zürich|2 ½ Zimmer-Wohnung, 8004 Zürich|https://www.immoscout24.ch/de/immobilien/mieten/plz-8000-zuerich?pn=2/mieten/4000836018|2.5 Zimmer|56m²|CHF 4’095.– |0|0|0|0|1|0|0|0|0|0|0|0|0|0|0|Dienerstrasse 8|8004 Zürich|56.0|Lyrenweg, 8047 Zürich|47.374698638916016|8.482243537902832|lyrenweg 8a 8047 zuerich 261 zuerich ch zh
2|1.5 Zimmer, 56m², CHF 3’020.– |3020|Seefeldstrasse 102, 8008 Zürich|Stilvolles Wohnen im Trendquartier Seefeld|https://www.immoscout24.ch/de/immobilien/mieten/plz-8000-zuerich?pn=2/mieten/4000951176|1.5 Zimmer|56m²|CHF 3’020.– |0|1|0|0|0|0|0|0|0|0|0|0|0|0|0|Seefeldstrasse 102|8008 Zürich|56.0|Lyrenweg, 8047 Zürich|47.374916076660156|8.481522560119629|lyrenweg 9 8047 zuerich 261 zuerich ch zh
2|3.5 Zimmer, 140m², CHF 6’790.– |6790|Sonneggstrasse 45, 8006 Zürich|Traumwohnung mit Blick über die Stadt|https://www.immoscout24.ch/de/immobilien/mieten/plz-8000-zuerich?pn=2/mieten/4000861392|3.5 Zimmer|140m²|CHF 6’790.– |0|0|0|0|0|0|0|1|0|0|0|0|0|0|0|Sonneggstrasse 45|8006 Zürich|140.0|Lyrenweg, 8047 Zürich|47.37493896484375|8.481947898864746|lyrenweg 10 8047 zuerich 261 zuerich ch zh
2|4.5 Zimmer, 109m², CHF 5’990.– |5990|Wartauweg 19, 8049 Zürich|4,5-Zimmer-Gartenwohnung mit Sitzplatz - Erstvermietung nach Sanierung - Wohnen im Kult|https://www.immoscout24.ch/de/immobilien/mieten/plz-8000-zuerich?pn=2/mieten/4000946773|4.5 Zimmer|109m²|CHF 5’990.– |0|0|0|0|0|0|0|0|0|1|0|0|0|0|0|Wartauweg 19|8049 Zürich|109.0|Lyrenweg, 8047 Zürich|47.375064849853516|8.481383323669434|lyrenweg 11 8047 zuerich 261 zuerich ch zh
2|3.5 Zimmer, 88m², CHF 4’990.– |4990|Wartauweg 19, 8049 Zürich|3,5-Zimmerwohnung - Erstvermietung nach Sanierung - Wohnen im Kult|https://www.immoscout24.ch/de/immobilien/mieten/plz-8000-zuerich?pn=2/mieten/4000946896|3.5 Zimmer|88m²|CHF 4’990.– |0|0|0|0|0|0|0|1|0|0|0|0|0|0|0|Wartauweg 19|8049 Zürich|88.0|Lyrenweg, 8047 Zürich|47.375064849853516|8.48222827911377|lyrenweg 12 8047 zuerich 261 zuerich ch zh
2|3.5 Zimmer, 81m², CHF 5’983.– |5983|Tödistrasse 63, 8002 Zürich|Kernsanierte Wohnung im Zentrum von Zürich|https://www.immoscout24.ch/de/immobilien/mieten/plz-8000-zuerich?pn=2/mieten/4000901292|3.5 Zimmer|81m²|CHF 5’983.– |0|0|0|0|0|0|0|1|0|0|0|0|0|0|0|Tödistrasse 63|8002 Zürich|81.0|Lyrenweg, 8047 Zürich|47.37510299682617|8.482292175292969|lyrenweg 12a 8047 zuerich 261 zuerich ch zh
2|4.5 Zimmer, 121m², CHF 5’125.– |5125|Wildbachstrasse 39, 8008 Zürich|Erstvermietung einer renovierten 4.5 ZWG mit Galerie im beliebten Wohnquartier Zürich-Seefeld|https://www.immoscout24.ch/de/immobilien/mieten/plz-8000-zuerich?pn=2/mieten/4000876980|4.5 Zimmer|121m²|CHF 5’125.– |0|0|0|0|0|0|0|0|0|1|0|0|0|0|0|Wildbachstrasse 39|8008 Zürich|121.0|Lyrenweg, 8047 Zürich|47.37525939941406|8.48202896118164|lyrenweg 14 8047 zuerich 261 zuerich ch zh
2|2.5 Zimmer, 95m², CHF 3’000.– |3000|Leutschenbachstrasse 85, 8052 Zürich|2,5 Apartment with incredibile views, 6th floor|https://www.immoscout24.ch/de/immobilien/mieten/plz-8000-zuerich?pn=2/mieten/4000824566|2.5 Zimmer|95m²|CHF 3’000.– |0|0|0|0|1|0|0|0|0|0|0|0|0|0|0|Leutschenbachstrasse 85|8052 Zürich|95.0|Lyrenweg, 8047 Zürich|47.37519073486328|8.481250762939453|lyrenweg 15 8047 zuerich 261 zuerich ch zh
2|1 Zimmer, 37m², CHF 1’630.– |1630|Culmannstrasse 30, 8006 Zürich|Hochwertiges studio vollmöbliert mit Balkon|https://www.immoscout24.ch/de/immobilien/mieten/plz-8000-zuerich?pn=2/mieten/4000642009|1 Zimmer|37m²|CHF 1’630.– |1|0|0|0|0|0|0|0|0|0|0|0|0|0|0|Culmannstrasse 30|8006 Zürich|37.0|Lyrenweg, 8047 Zürich|47.37514877319336|8.481740951538086|lyrenweg 16 8047 zuerich 261 zuerich ch zh
5|4.5 Zimmer, 108m², CHF 4’630.– |4630|Wiedingstrasse/Austrasse, 8045 Zürich|Traumhafte Familienwohnung im beliebten Kreis 3|https://www.immoscout24.ch/de/immobilien/mieten/plz-8000-zuerich?pn=5/mieten/4000986807|4.5 Zimmer|108m²|CHF 4’630.– |0|0|0|0|0|0|0|0|0|1|0|0|0|0|0|Wiedingstrasse/Austrasse|8045 Zürich|108.0|Lyrenweg, 8047 Zürich|47.375328063964844|8.48111343383789|lyrenweg 17 8047 zuerich 261 zuerich ch zh
5|5.5 Zimmer, 133m², CHF 5’690.– |5690|Wiedingstrasse/Austrasse, 8045 Zürich|Ob Familie oder WG wir haben das passende Objekt für Sie|https://www.immoscout24.ch/de/immobilien/mieten/plz-8000-zuerich?pn=5/mieten/4000964738|5.5 Zimmer|133m²|CHF 5’690.– |0|0|0|0|0|0|0|0|0|0|0|1|0|0|0|Wiedingstrasse/Austrasse|8045 Zürich|133.0|Lyrenweg, 8047 Zürich|47.37542724609375|8.481868743896484|lyrenweg 18 8047 zuerich 261 zuerich ch zh
5|3.5 Zimmer, 99m², CHF 3’590.– |3590|Im Glockenacker 56, 8053 Zürich|Hier wartet Ihr neues Zuhause auf Sie|https://www.immoscout24.ch/de/immobilien/mieten/plz-8000-zuerich?pn=5/mieten/4000956518|3.5 Zimmer|99m²|CHF 3’590.– |0|0|0|0|0|0|0|1|0|0|0|0|0|0|0|Im Glockenacker 56|8053 Zürich|99.0|Lyrenweg, 8047 Zürich|47.37542724609375|8.480886459350586|lyrenweg 19 8047 zuerich 261 zuerich ch zh
5|2.5 Zimmer, 87m², CHF 2’595.– |2595|Eierbrechtstrasse 59/61, 8053 Zürich|Moderne und grosszügige Wohnung in Zürich-Witikon|https://www.immoscout24.ch/de/immobilien/mieten/plz-8000-zuerich?pn=5/mieten/4000889443|2.5 Zimmer|87m²|CHF 2’595.– |0|0|0|0|1|0|0|0|0|0|0|0|0|0|0|Eierbrechtstrasse 59/61|8053 Zürich|87.0|Lyrenweg, 8047 Zürich|47.375457763671875|8.48095989227295|lyrenweg 19a 8047 zuerich 261 zuerich ch zh
5|4.5 Zimmer, 122m², CHF 4’190.– |4190|Pfingstweidstrasse 104B, 8005 Zürich|Liebe auf den ersten Blick!|https://www.immoscout24.ch/de/immobilien/mieten/plz-8000-zuerich?pn=5/mieten/4000814794|4.5 Zimmer|122m²|CHF 4’190.– |0|0|0|0|0|0|0|0|0|1|0|0|0|0|0|Pfingstweidstrasse 104B|8005 Zürich|122.0|Lyrenweg, 8047 Zürich|47.37531280517578|8.48159408569336|lyrenweg 20 8047 zuerich 261 zuerich ch zh
5|5 Zimmer, 156m², CHF 6’700.– |6700|Utoquai 49, 8008 Zürich|Wohnen am Seebecken|https://www.immoscout24.ch/de/immobilien/mieten/plz-8000-zuerich?pn=5/mieten/4000672012|5 Zimmer|156m²|CHF 6’700.– |0|0|0|0|0|0|0|0|0|0|1|0|0|0|0|Utoquai 49|8008 Zürich|156.0|Lyrenweg, 8047 Zürich|47.375553131103516|8.480474472045898|lyrenweg 21 8047 zuerich 261 zuerich ch zh
5|4.5 Zimmer, 165m², CHF 6’140.– |6140|Plattenstr. 34, 8032 Zürich|Attikawohnung mit eigener Rooftop|https://www.immoscout24.ch/de/immobilien/mieten/plz-8000-zuerich?pn=5/mieten/4000490665|4.5 Zimmer|165m²|CHF 6’140.– |0|0|0|0|0|0|0|0|0|1|0|0|0|0|0|Plattenstr. 34|8032 Zürich|165.0|Lyrenweg, 8047 Zürich|47.375484466552734|8.480244636535645|lyrenweg 21b 8047 zuerich 261 zuerich ch zh
5|3.5 Zimmer, CHF 6’285.– |6285|Hadlaubstr. 73, 8006 Zürich|Wohnoase der Spitzenklasse mit atemberaubender Aussicht!|https://www.immoscout24.ch/de/immobilien/mieten/plz-8000-zuerich?pn=5/mieten/4000464770|3.5 Zimmer||CHF 6’285.– |0|0|0|0|0|0|0|1|0|0|0|0|0|0|0|Hadlaubstr. 73|8006 Zürich||Lyrenweg, 8047 Zürich|47.376075744628906|8.479437828063965|lyrenweg 21e 8047 zuerich 261 zuerich ch zh
5|4.5 Zimmer, 121m², CHF 4’510.– |4510|Forsterstrasse 67, 8044 Zürich|Charmante Wohnung am Zürichberg|https://www.immoscout24.ch/de/immobilien/mieten/plz-8000-zuerich?pn=5/mieten/4000366224|4.5 Zimmer|121m²|CHF 4’510.– |0|0|0|0|0|0|0|0|0|1|0|0|0|0|0|Forsterstrasse 67|8044 Zürich|121.0|Lyrenweg, 8047 Zürich|47.37528610229492|8.480560302734375|lyrenweg 21a 8047 zuerich 261 zuerich ch zh
5|3.5 Zimmer, 80m², CHF 2’380.– |2380|Albisstr. 124, 8038 Zürich|Frisch sanierte 3.5 Zimmer Wohnung in Wollishofen|https://www.immoscout24.ch/de/immobilien/mieten/plz-8000-zuerich?pn=5/mieten/4001022524|3.5 Zimmer|80m²|CHF 2’380.– |0|0|0|0|0|0|0|1|0|0|0|0|0|0|0|Albisstr. 124|8038 Zürich|80.0|Lyrenweg, 8047 Zürich|47.375545501708984|8.480504035949707|lyrenweg 21 8047 zuerich 261 zuerich ch zh
5|3.5 Zimmer, 105m², CHF 3’165.– |3165|Hohlstrasse 485a, 8048 Zürich|Urbanes & Zentrales Wohnen. Dein Labitzke.|https://www.immoscout24.ch/de/immobilien/mieten/plz-8000-zuerich?pn=5/mieten/4001022454|3.5 Zimmer|105m²|CHF 3’165.– |0|0|0|0|0|0|0|1|0|0|0|0|0|0|0|Hohlstrasse 485a|8048 Zürich|105.0|Lyrenweg, 8047 Zürich|47.375465393066406|8.481429100036621|lyrenweg 22 8047 zuerich 261 zuerich ch zh
5|2.5 Zimmer, 95m², CHF 4’455.– |4455|Aemtlerstr. 17, 8003 Zürich|Loftwohnung mit grosser Dachterrasse an zentraler Lage|https://www.immoscout24.ch/de/immobilien/mieten/plz-8000-zuerich?pn=5/mieten/4001022257|2.5 Zimmer|95m²|CHF 4’455.– |0|0|0|0|1|0|0|0|0|0|0|0|0|0|0|Aemtlerstr. 17|8003 Zürich|95.0|Lyrenweg, 8047 Zürich|47.37567901611328|8.480813026428223|lyrenweg 23 8047 zuerich 261 zuerich ch zh
5|3.5 Zimmer, 99m², CHF 4’080.– |4080|Katharinenweg 5, 8002 Zürich|ERSTVERMIETUNG nach Totalsanierung|https://www.immoscout24.ch/de/immobilien/mieten/plz-8000-zuerich?pn=5/mieten/4001019847|3.5 Zimmer|99m²|CHF 4’080.– |0|0|0|0|0|0|0|1|0|0|0|0|0|0|0|Katharinenweg 5|8002 Zürich|99.0|Lyrenweg, 8047 Zürich|47.375633239746094|8.480876922607422|lyrenweg 23a 8047 zuerich 261 zuerich ch zh
5|3.5 Zimmer, 99m², CHF 4’080.– |4080|Katharinenweg 5, 8002 Zürich|ERSTVERMIETUNG nach Totalsanierung|https://www.immoscout24.ch/de/immobilien/mieten/plz-8000-zuerich?pn=5/mieten/4001019811|3.5 Zimmer|99m²|CHF 4’080.– |0|0|0|0|0|0|0|1|0|0|0|0|0|0|0|Katharinenweg 5|8002 Zürich|99.0|Lyrenweg, 8047 Zürich|47.375526428222656|8.481588363647461|lyrenweg 24 8047 zuerich 261 zuerich ch zh
5|2 Zimmer, 70m², CHF 3’431.– |3431|Baslerstrasse 77, 8048 Zürich|Urbanes Wohnen in einem inspirierenden Umfeld|https://www.immoscout24.ch/de/immobilien/mieten/plz-8000-zuerich?pn=5/mieten/4001018076|2 Zimmer|70m²|CHF 3’431.– |0|0|0|1|0|0|0|0|0|0|0|0|0|0|0|Baslerstrasse 77|8048 Zürich|70.0|Lyrenweg, 8047 Zürich|47.375823974609375|8.480690956115723|lyrenweg 25 8047 zuerich 261 zuerich ch zh
5|2.5 Zimmer, 66m², CHF 2’782.– |2782|Dorfstrasse 40, 8037 Zürich|Wunderschöne helle 2.5 Zi.-Maisonettewohnung in Wipkingen|https://www.immoscout24.ch/de/immobilien/mieten/plz-8000-zuerich?pn=5/mieten/4001017216|2.5 Zimmer|66m²|CHF 2’782.– |0|0|0|0|1|0|0|0|0|0|0|0|0|0|0|Dorfstrasse 40|8037 Zürich|66.0|Lyrenweg, 8047 Zürich|47.37559509277344|8.48173999786377|lyrenweg 26 8047 zuerich 261 zuerich ch zh
5|3.5 Zimmer, 113m², CHF 4’840.– |4840|Badenerstr. 157, 8004 Zürich|Moderne Altbauwohnung mitten im Stadtzentrum|https://www.immoscout24.ch/de/immobilien/mieten/plz-8000-zuerich?pn=5/mieten/4001015840|3.5 Zimmer|113m²|CHF 4’840.– |0|0|0|0|0|0|0|1|0|0|0|0|0|0|0|Badenerstr. 157|8004 Zürich|113.0|Lyrenweg, 8047 Zürich|47.37571716308594|8.480352401733398|lyrenweg 27 8047 zuerich 261 zuerich ch zh
5|4.5 Zimmer, 110m², CHF 4’765.– |4765|Badenerstr. 157, 8004 Zürich|Moderne Altbauwohnung mitten im Stadtzentrum|https://www.immoscout24.ch/de/immobilien/mieten/plz-8000-zuerich?pn=5/mieten/4001015839|4.5 Zimmer|110m²|CHF 4’765.– |0|0|0|0|0|0|0|0|0|1|0|0|0|0|0|Badenerstr. 157|8004 Zürich|110.0|Lyrenweg, 8047 Zürich|47.37561798095703|8.481294631958008|lyrenweg 28 8047 zuerich 261 zuerich ch zh
6|1 Zimmer, 23m², CHF 1’650.– |1650|Ankerstrasse 110, 8004 Zürich|Sanierte 1-Zimmerwohnungen beim Helvetiaplatz zu vermieten!|https://www.immoscout24.ch/de/immobilien/mieten/plz-8000-zuerich?pn=6/mieten/4001015278|1 Zimmer|23m²|CHF 1’650.– |1|0|0|0|0|0|0|0|0|0|0|0|0|0|0|Ankerstrasse 110|8004 Zürich|23.0|Lyrenweg, 8047 Zürich|47.375877380371094|8.480228424072266|lyrenweg 29 8047 zuerich 261 zuerich ch zh
6|3.5 Zimmer, 112m², CHF 3’450.– |3450|Zwirnerstrasse 78, 8041 Zürich|Wunderschöne, grosszügige Wohnung|https://www.immoscout24.ch/de/immobilien/mieten/plz-8000-zuerich?pn=6/mieten/4001014817|3.5 Zimmer|112m²|CHF 3’450.– |0|0|0|0|0|0|0|1|0|0|0|0|0|0|0|Zwirnerstrasse 78|8041 Zürich|112.0|Lyrenweg, 8047 Zürich|47.37567901611328|8.481449127197266|lyrenweg 30 8047 zuerich 261 zuerich ch zh
6|3 Zimmer, 64m², CHF 1’895.– |1895|Riedenhaldenstr. 30, 8046 Zürich|3-Zimmerwohnung mit internem Estrich, Reduit / KEIN Balkon|https://www.immoscout24.ch/de/immobilien/mieten/plz-8000-zuerich?pn=6/mieten/4001013998|3 Zimmer|64m²|CHF 1’895.– |0|0|0|0|0|0|1|0|0|0|0|0|0|0|0|Riedenhaldenstr. 30|8046 Zürich|64.0|Lyrenweg, 8047 Zürich|47.37599182128906|8.48056411743164|lyrenweg 31 8047 zuerich 261 zuerich ch zh
6|5.5 Zimmer, 139m², CHF 3’870.– |3870|Hädrichstr. 7, 8047 Zürich|moderne Architektur, spannend inszeniert|https://www.immoscout24.ch/de/immobilien/mieten/plz-8000-zuerich?pn=6/mieten/4001012043|5.5 Zimmer|139m²|CHF 3’870.– |0|0|0|0|0|0|0|0|0|0|0|1|0|0|0|Hädrichstr. 7|8047 Zürich|139.0|Lyrenweg, 8047 Zürich|47.375732421875|8.481599807739258|lyrenweg 32 8047 zuerich 261 zuerich ch zh
6|2.5 Zimmer, 71m², CHF 2’700.– |2700|Bachmattstr. 59, 8048 Zürich|modernes Zuhause|https://www.immoscout24.ch/de/immobilien/mieten/plz-8000-zuerich?pn=6/mieten/4001011959|2.5 Zimmer|71m²|CHF 2’700.– |0|0|0|0|1|0|0|0|0|0|0|0|0|0|0|Bachmattstr. 59|8048 Zürich|71.0|Lyrenweg, 8047 Zürich|47.376136779785156|8.480426788330078|lyrenweg 33 8047 zuerich 261 zuerich ch zh
6|3.5 Zimmer, 83m², CHF 3’055.– |3055|Rainfussweg 3, 8038 Zürich|Ihre Traumwohnung - modern, hell und an zentraler Lage|https://www.immoscout24.ch/de/immobilien/mieten/plz-8000-zuerich?pn=6/mieten/4001010547|3.5 Zimmer|83m²|CHF 3’055.– |0|0|0|0|0|0|0|1|0|0|0|0|0|0|0|Rainfussweg 3|8038 Zürich|83.0|Lyrenweg, 8047 Zürich|47.375770568847656|8.481178283691406|lyrenweg 34 8047 zuerich 261 zuerich ch zh
6|5.5 Zimmer, 186m², CHF 5’300.– |5300|Loogartenstrasse 22, 8048 Zürich|Attraktives 5.5 Zimmer-Reihen-Eckeinfamilienhaus in Zürich-Altstetten|https://www.immoscout24.ch/de/immobilien/mieten/plz-8000-zuerich?pn=6/mieten/4001007944|5.5 Zimmer|186m²|CHF 5’300.– |0|0|0|0|0|0|0|0|0|0|0|1|0|0|0|Loogartenstrasse 22|8048 Zürich|186.0|Lyrenweg, 8047 Zürich|47.37603759765625|8.480107307434082|lyrenweg 35 8047 zuerich 261 zuerich ch zh
6|3.5 Zimmer, 85m², CHF 2’760.– |2760|Welchogasse 5, 8050 Zürich|Schönes und  zentrales Wohnen beim Bahnhof Oerlikon|https://www.immoscout24.ch/de/immobilien/mieten/plz-8000-zuerich?pn=6/mieten/4001002683|3.5 Zimmer|85m²|CHF 2’760.– |0|0|0|0|0|0|0|1|0|0|0|0|0|0|0|Welchogasse 5|8050 Zürich|85.0|Lyrenweg, 8047 Zürich|47.375831604003906|8.481322288513184|lyrenweg 36 8047 zuerich 261 zuerich ch zh
6|4 Zimmer, 71m², CHF 2’750.– |2750|Langgrütstrasse 103, 8047 Zürich|Wohnung im ruhigen Wohnquatier|https://www.immoscout24.ch/de/immobilien/mieten/plz-8000-zuerich?pn=6/mieten/4000998360|4 Zimmer|71m²|CHF 2’750.– |0|0|0|0|0|0|0|0|1|0|0|0|0|0|0|Langgrütstrasse 103|8047 Zürich|71.0|Lyrenweg, 8047 Zürich|47.37617874145508|8.47997760772705|lyrenweg 37 8047 zuerich 261 zuerich ch zh
6|3 Zimmer, 83m², CHF 3’506.– |3506|Baslerstrasse 77, 8048 Zürich|Urbanes Wohnen in einem inspirierenden Umfeld|https://www.immoscout24.ch/de/immobilien/mieten/plz-8000-zuerich?pn=6/mieten/4000998358|3 Zimmer|83m²|CHF 3’506.– |0|0|0|0|0|0|1|0|0|0|0|0|0|0|0|Baslerstrasse 77|8048 Zürich|83.0|Lyrenweg, 8047 Zürich|47.375885009765625|8.481481552124023|lyrenweg 38 8047 zuerich 261 zuerich ch zh
6|2 Zimmer, 46m², CHF 2’380.– |2380|Marienstrasse 20, 8003 Zürich|Wohnen im Herzen der Stadt Zürich|https://www.immoscout24.ch/de/immobilien/mieten/plz-8000-zuerich?pn=6/mieten/4000997845|2 Zimmer|46m²|CHF 2’380.– |0|0|0|1|0|0|0|0|0|0|0|0|0|0|0|Marienstrasse 20|8003 Zürich|46.0|Lyrenweg, 8047 Zürich|47.37632751464844|8.480300903320312|lyrenweg 39 8047 zuerich 261 zuerich ch zh
6|2 Zimmer, 43m², CHF 2’200.– |2200|Tuggenerstr. 3, 8008 Zürich|Wohnung an zentraler Lage im Seefeld|https://www.immoscout24.ch/de/immobilien/mieten/plz-8000-zuerich?pn=6/mieten/4000997617|2 Zimmer|43m²|CHF 2’200.– |0|0|0|1|0|0|0|0|0|0|0|0|0|0|0|Tuggenerstr. 3|8008 Zürich|43.0|Lyrenweg, 8047 Zürich|47.375919342041016|8.481056213378906|lyrenweg 40 8047 zuerich 261 zuerich ch zh
6|3 Zimmer, 89m², CHF 4’220.– |4220|Forchstrasse 24, 8008 Zürich|Wohnen auf zwei Etagen|https://www.immoscout24.ch/de/immobilien/mieten/plz-8000-zuerich?pn=6/mieten/4000996757|3 Zimmer|89m²|CHF 4’220.– |0|0|0|0|0|0|1|0|0|0|0|0|0|0|0|Forchstrasse 24|8008 Zürich|89.0|Lyrenweg, 8047 Zürich|47.37596893310547|8.481195449829102|lyrenweg 40a 8047 zuerich 261 zuerich ch zh
6|6 Zimmer, 147m², CHF 6’370.– |6370|Forchstrasse 22, 8008 Zürich|6-Zimmer-Maisonette-Wohnung an bevorzugter Lage|https://www.immoscout24.ch/de/immobilien/mieten/plz-8000-zuerich?pn=6/mieten/4000996750|6 Zimmer|147m²|CHF 6’370.– |0|0|0|0|0|0|0|0|0|0|0|0|1|0|0|Forchstrasse 22|8008 Zürich|147.0|Lyrenweg, 8047 Zürich|47.3764762878418|8.480148315429688|lyrenweg 41 8047 zuerich 261 zuerich ch zh
6|6.5 Zimmer, 185m², CHF 8’923.– |8923|8002 Zürich|6 ½ Zimmer-Jugendstil-Wohnung mit 185m2 Netto-Wohnfläche mit Balkon und Veranda|https://www.immoscout24.ch/de/immobilien/mieten/plz-8000-zuerich?pn=6/mieten/4000992974|6.5 Zimmer|185m²|CHF 8’923.– |0|0|0|0|0|0|0|0|0|0|0|0|0|1|0||8002 Zürich|185.0|Lyrenweg, 8047 Zürich|47.37638473510742|8.480179786682129|lyrenweg 41b 8047 zuerich 261 zuerich ch zh
6|4.5 Zimmer, 108m², CHF 3’947.– |3947|Trichtenhausenstrasse 86, 8053 Zürich|Ihre neue 4.5-Zimmerwohnung in der Siedlung Verdiana!|https://www.immoscout24.ch/de/immobilien/mieten/plz-8000-zuerich?pn=6/mieten/4000968829|4.5 Zimmer|108m²|CHF 3’947.– |0|0|0|0|0|0|0|0|0|1|0|0|0|0|0|Trichtenhausenstrasse 86|8053 Zürich|108.0|Röslistr. 57, 8006 Zürich|47.390933990478516|8.544818878173828|roeslistrasse 57 8006 zuerich 261 zuerich ch zh
6|4.5 Zimmer, 155m², CHF 3’950.– |3950|Hadlaubstr. 41, 8006 Zürich|Wohnung im schönen Kreis 6 gesucht?|https://www.immoscout24.ch/de/immobilien/mieten/plz-8000-zuerich?pn=6/mieten/4000962664|4.5 Zimmer|155m²|CHF 3’950.– |0|0|0|0|0|0|0|0|0|1|0|0|0|0|0|Hadlaubstr. 41|8006 Zürich|155.0|Müllerstrasse 76, 8004 Zürich|47.37632369995117|8.528502464294434|muellerstrasse 76 8004 zuerich 261 zuerich ch zh
6|3 Zimmer, 65m², CHF 1’799.– |1799|Bombachstr. 24, 8049 Zürich|"Heimelige Wohnung in Höngg mieten, ""Befristet bis 31.03.2025"""|https://www.immoscout24.ch/de/immobilien/mieten/plz-8000-zuerich?pn=6/mieten/4000946253|3 Zimmer|65m²|CHF 1’799.– |0|0|0|0|0|0|1|0|0|0|0|0|0|0|0|Bombachstr. 24|8049 Zürich|65.0|Müllerstrasse 76, 8004 Zürich|47.37632369995117|8.528502464294434|muellerstrasse 76 8004 zuerich 261 zuerich ch zh
6|4 Zimmer, 77m², CHF 3’461.– |3461|Birmensdorferstrasse 32, 8004 Zürich|Charmante 4-Zimmerwohnung im Herzen Zürich`s|https://www.immoscout24.ch/de/immobilien/mieten/plz-8000-zuerich?pn=6/mieten/4000946243|4 Zimmer|77m²|CHF 3’461.– |0|0|0|0|0|0|0|0|1|0|0|0|0|0|0|Birmensdorferstrasse 32|8004 Zürich|77.0|Staffelstrasse 5, 8045 Zürich|47.361183166503906|8.522086143493652|staffelstrasse 5 8045 zuerich 261 zuerich ch zh
6|4.5 Zimmer, 91m², CHF 2’740.– |2740|Dorfstr. 12, 8037 Zürich|Charmante Wohnung in ZH-Wipkingen|https://www.immoscout24.ch/de/immobilien/mieten/plz-8000-zuerich?pn=6/mieten/4000934344|4.5 Zimmer|91m²|CHF 2’740.– |0|0|0|0|0|0|0|0|0|1|0|0|0|0|0|Dorfstr. 12|8037 Zürich|91.0|Rolandstrasse 3, 8004 Zürich|47.37883758544922|8.526875495910645|rolandstrasse 3 8004 zuerich 261 zuerich ch zh
7|2 Zimmer, 43m², CHF 2’200.– |2200|Tuggenerstr. 3, 8008 Zürich|Wohnung an zentraler Lage im Seefeld|https://www.immoscout24.ch/de/immobilien/mieten/plz-8000-zuerich?pn=7/mieten/4000997617|2 Zimmer|43m²|CHF 2’200.– |0|0|0|1|0|0|0|0|0|0|0|0|0|0|0|Tuggenerstr. 3|8008 Zürich|43.0|Rolandstrasse 3, 8004 Zürich|47.37883758544922|8.526875495910645|rolandstrasse 3 8004 zuerich 261 zuerich ch zh
7|3 Zimmer, 89m², CHF 4’220.– |4220|Forchstrasse 24, 8008 Zürich|Wohnen auf zwei Etagen|https://www.immoscout24.ch/de/immobilien/mieten/plz-8000-zuerich?pn=7/mieten/4000996757|3 Zimmer|89m²|CHF 4’220.– |0|0|0|0|0|0|1|0|0|0|0|0|0|0|0|Forchstrasse 24|8008 Zürich|89.0|Naphtastr. 4, 8005 Zürich|47.3870849609375|8.516118049621582|naphtastrasse 4 8005 zuerich 261 zuerich ch zh
7|6 Zimmer, 147m², CHF 6’370.– |6370|Forchstrasse 22, 8008 Zürich|6-Zimmer-Maisonette-Wohnung an bevorzugter Lage|https://www.immoscout24.ch/de/immobilien/mieten/plz-8000-zuerich?pn=7/mieten/4000996750|6 Zimmer|147m²|CHF 6’370.– |0|0|0|0|0|0|0|0|0|0|0|0|1|0|0|Forchstrasse 22|8008 Zürich|147.0|Bucheggstrasse 21, 8037 Zürich|47.396705627441406|8.528757095336914|bucheggstrasse 21 8037 zuerich 261 zuerich ch zh
7|6.5 Zimmer, 185m², CHF 8’923.– |8923|8002 Zürich|6 ½ Zimmer-Jugendstil-Wohnung mit 185m2 Netto-Wohnfläche mit Balkon und Veranda|https://www.immoscout24.ch/de/immobilien/mieten/plz-8000-zuerich?pn=7/mieten/4000992974|6.5 Zimmer|185m²|CHF 8’923.– |0|0|0|0|0|0|0|0|0|0|0|0|0|1|0||8002 Zürich|185.0|Winterthurerstrasse 295, 8057 Zürich|47.40293884277344|8.553873062133789|winterthurerstrasse 295 8057 zuerich 261 zuerich ch zh
7|4.5 Zimmer, 108m², CHF 3’947.– |3947|Trichtenhausenstrasse 86, 8053 Zürich|Ihre neue 4.5-Zimmerwohnung in der Siedlung Verdiana!|https://www.immoscout24.ch/de/immobilien/mieten/plz-8000-zuerich?pn=7/mieten/4000968829|4.5 Zimmer|108m²|CHF 3’947.– |0|0|0|0|0|0|0|0|0|1|0|0|0|0|0|Trichtenhausenstrasse 86|8053 Zürich|108.0|Dienerstrasse 8, 8004 Zürich|47.377655029296875|8.528881072998047|dienerstrasse 8 8004 zuerich 261 zuerich ch zh
7|4.5 Zimmer, 155m², CHF 3’950.– |3950|Hadlaubstr. 41, 8006 Zürich|Wohnung im schönen Kreis 6 gesucht?|https://www.immoscout24.ch/de/immobilien/mieten/plz-8000-zuerich?pn=7/mieten/4000962664|4.5 Zimmer|155m²|CHF 3’950.– |0|0|0|0|0|0|0|0|0|1|0|0|0|0|0|Hadlaubstr. 41|8006 Zürich|155.0|Seefeldstrasse 102, 8008 Zürich|47.35956954956055|8.552647590637207|seefeldstrasse 102 8008 zuerich 261 zuerich ch zh
7|3 Zimmer, 65m², CHF 1’799.– |1799|Bombachstr. 24, 8049 Zürich|"Heimelige Wohnung in Höngg mieten, ""Befristet bis 31.03.2025"""|https://www.immoscout24.ch/de/immobilien/mieten/plz-8000-zuerich?pn=7/mieten/4000946253|3 Zimmer|65m²|CHF 1’799.– |0|0|0|0|0|0|1|0|0|0|0|0|0|0|0|Bombachstr. 24|8049 Zürich|65.0|Sonneggstrasse 45, 8006 Zürich|47.380638122558594|8.545746803283691|sonneggstrasse 45 8006 zuerich 261 zuerich ch zh
7|4 Zimmer, 77m², CHF 3’461.– |3461|Birmensdorferstrasse 32, 8004 Zürich|Charmante 4-Zimmerwohnung im Herzen Zürich`s|https://www.immoscout24.ch/de/immobilien/mieten/plz-8000-zuerich?pn=7/mieten/4000946243|4 Zimmer|77m²|CHF 3’461.– |0|0|0|0|0|0|0|0|1|0|0|0|0|0|0|Birmensdorferstrasse 32|8004 Zürich|77.0|Wartauweg 19, 8049 Zürich|47.40304183959961|8.49215316772461|wartauweg 19 8049 zuerich 261 zuerich ch zh
7|4.5 Zimmer, 91m², CHF 2’740.– |2740|Dorfstr. 12, 8037 Zürich|Charmante Wohnung in ZH-Wipkingen|https://www.immoscout24.ch/de/immobilien/mieten/plz-8000-zuerich?pn=7/mieten/4000934344|4.5 Zimmer|91m²|CHF 2’740.– |0|0|0|0|0|0|0|0|0|1|0|0|0|0|0|Dorfstr. 12|8037 Zürich|91.0|Wartauweg 19, 8049 Zürich|47.40304183959961|8.49215316772461|wartauweg 19 8049 zuerich 261 zuerich ch zh
7|2.5 Zimmer, 62m², CHF 2’475.– |2475|Hinterbergstrasse 57, 8044 Zürich|2.5 Zimmerwohnung am ruhigen und sonnigen Zürichberg!|https://www.immoscout24.ch/de/immobilien/mieten/plz-8000-zuerich?pn=7/mieten/4000925186|2.5 Zimmer|62m²|CHF 2’475.– |0|0|0|0|1|0|0|0|0|0|0|0|0|0|0|Hinterbergstrasse 57|8044 Zürich|62.0|Wartauweg 19, 8049 Zürich|47.40304183959961|8.49215316772461|wartauweg 19 8049 zuerich 261 zuerich ch zh
7|2.5 Zimmer, 46m², CHF 2’490.– |2490|Schaffhauserstr. 438, 8050 Zürich|SEEBACHERHOF - Exklusive Wohnräume in historischem Glanz!|https://www.immoscout24.ch/de/immobilien/mieten/plz-8000-zuerich?pn=7/mieten/4000920596|2.5 Zimmer|46m²|CHF 2’490.– |0|0|0|0|1|0|0|0|0|0|0|0|0|0|0|Schaffhauserstr. 438|8050 Zürich|46.0|Wartauweg 19, 8049 Zürich|47.40304183959961|8.49215316772461|wartauweg 19 8049 zuerich 261 zuerich ch zh
7|4.5 Zimmer, 123m², CHF 4’224.– |4224|Birchstrasse 183B, 8050 Zürich|Attraktive Wohnung in Zürich-Oerlikon|https://www.immoscout24.ch/de/immobilien/mieten/plz-8000-zuerich?pn=7/mieten/4000908701|4.5 Zimmer|123m²|CHF 4’224.– |0|0|0|0|0|0|0|0|0|1|0|0|0|0|0|Birchstrasse 183B|8050 Zürich|123.0|Wartauweg 19, 8049 Zürich|47.40304183959961|8.49215316772461|wartauweg 19 8049 zuerich 261 zuerich ch zh
7|4.5 Zimmer, 123m², CHF 4’224.– |4224|Birchstrasse 183B, 8050 Zürich|Attraktive Wohnung in Zürich-Oerlikon|https://www.immoscout24.ch/de/immobilien/mieten/plz-8000-zuerich?pn=7/mieten/4000906746|4.5 Zimmer|123m²|CHF 4’224.– |0|0|0|0|0|0|0|0|0|1|0|0|0|0|0|Birchstrasse 183B|8050 Zürich|123.0|Wartauweg 19, 8049 Zürich|47.40304183959961|8.49215316772461|wartauweg 19 8049 zuerich 261 zuerich ch zh
7|2 Zimmer, 51m², CHF 1’543.– |1543|Schaffhauserstr. 411, 8050 Zürich|Befristete 2 Zimmer Wohnung an sehr zentrale Lage|https://www.immoscout24.ch/de/immobilien/mieten/plz-8000-zuerich?pn=7/mieten/4000898642|2 Zimmer|51m²|CHF 1’543.– |0|0|0|1|0|0|0|0|0|0|0|0|0|0|0|Schaffhauserstr. 411|8050 Zürich|51.0|Tödistrasse 63, 8002 Zürich|47.36863708496094|8.532673835754395|toedistrasse 63 8002 zuerich 261 zuerich ch zh
7|3 Zimmer, 97m², CHF 3’990.– |3990|Breitingerstrasse 27, 8002 Zürich|Exklusive und neu erstellte 3-Zimmer-Dachwohnung im schönen Enge-Quartier|https://www.immoscout24.ch/de/immobilien/mieten/plz-8000-zuerich?pn=7/mieten/4000898127|3 Zimmer|97m²|CHF 3’990.– |0|0|0|0|0|0|1|0|0|0|0|0|0|0|0|Breitingerstrasse 27|8002 Zürich|97.0|Wildbachstrasse 39, 8008 Zürich|47.356292724609375|8.557610511779785|wildbachstrasse 39 8008 zuerich 261 zuerich ch zh
7|3 Zimmer, 67m², CHF 2’130.– |2130|Hardaustrasse 21, 8003 Zürich|Befristet für 1 Jahr - Stadtwohnung mit Charme nähe Albisriederplatz|https://www.immoscout24.ch/de/immobilien/mieten/plz-8000-zuerich?pn=7/mieten/4000896839|3 Zimmer|67m²|CHF 2’130.– |0|0|0|0|0|0|1|0|0|0|0|0|0|0|0|Hardaustrasse 21|8003 Zürich|67.0|Leutschenbachstrasse 85, 8052 Zürich|||
7|3.5 Zimmer, 126m², CHF 6’575.– |6575|Seestrasse 27, 8002 Zürich|Live Above - Exklusive Mietwohnung über dem FIFA World Football Museum|https://www.immoscout24.ch/de/immobilien/mieten/plz-8000-zuerich?pn=7/mieten/4000874027|3.5 Zimmer|126m²|CHF 6’575.– |0|0|0|0|0|0|0|1|0|0|0|0|0|0|0|Seestrasse 27|8002 Zürich|126.0|Culmannstrasse 30, 8006 Zürich|47.38124084472656|8.54763412475586|culmannstrasse 30 8006 zuerich 261 zuerich ch zh
7|2.5 Zimmer, 109m², CHF 3’705.– |3705|Forchstrasse 261, 8032 Zürich|Trendy - Chic - Urban - Ihr Loft-Traum mit grosser Terrasse|https://www.immoscout24.ch/de/immobilien/mieten/plz-8000-zuerich?pn=7/mieten/4000871472|2.5 Zimmer|109m²|CHF 3’705.– |0|0|0|0|1|0|0|0|0|0|0|0|0|0|0|Forchstrasse 261|8032 Zürich|109.0|Wiedingstrasse/Austrasse, 8045 Zürich|||
7|2.5 Zimmer, 109m², CHF 3’705.– |3705|Forchstrasse 261, 8032 Zürich|Trendy - Chic - Urban - Ihr Loft-Traum mit grosser Terrasse|https://www.immoscout24.ch/de/immobilien/mieten/plz-8000-zuerich?pn=7/mieten/4000869819|2.5 Zimmer|109m²|CHF 3’705.– |0|0|0|0|1|0|0|0|0|0|0|0|0|0|0|Forchstrasse 261|8032 Zürich|109.0|Wiedingstrasse/Austrasse, 8045 Zürich|||
8|4 Zimmer, 55m², CHF 2’990.– |2990|Beckenhofstrasse 30, 8006 Zürich|Gemütliche und zentral gelegene 4-Zimmerwohnung|https://www.immoscout24.ch/de/immobilien/mieten/plz-8000-zuerich?pn=8/mieten/4000765945|4 Zimmer|55m²|CHF 2’990.– |0|0|0|0|0|0|0|0|1|0|0|0|0|0|0|Beckenhofstrasse 30|8006 Zürich|55.0|Im Glockenacker 56, 8053 Zürich|47.36025619506836|8.601366996765137|im glockenacker 56 8053 zuerich 261 zuerich ch zh
8|4 Zimmer, 55m², CHF 2’990.– |2990|Beckenhofstrasse 30, 8006 Zürich|Originelle 4-Zimmerwohnung im Kreis 6|https://www.immoscout24.ch/de/immobilien/mieten/plz-8000-zuerich?pn=8/mieten/4000765255|4 Zimmer|55m²|CHF 2’990.– |0|0|0|0|0|0|0|0|1|0|0|0|0|0|0|Beckenhofstrasse 30|8006 Zürich|55.0|Eierbrechtstrasse 59/61, 8053 Zürich|||
8|4.5 Zimmer, 119m², CHF 4’660.– |4660|Forsterstrasse 67, 8044 Zürich|4.5 Zimmer-Wohnung mit Aussicht auf den Zürichsee|https://www.immoscout24.ch/de/immobilien/mieten/plz-8000-zuerich?pn=8/mieten/4000752026|4.5 Zimmer|119m²|CHF 4’660.– |0|0|0|0|0|0|0|0|0|1|0|0|0|0|0|Forsterstrasse 67|8044 Zürich|119.0|Pfingstweidstrasse 104B, 8005 Zürich|47.39118194580078|8.508831977844238|pfingstweidstrasse 104b 8005 zuerich 261 zuerich ch zh
8|3 Zimmer, 68m², CHF 3’150.– |3150|Pfirsichstrasse 9, 8006 Zürich|Urbaner Luxus im Herzen vom Kreis 6, mit erstklassigen Annehmlichkeiten!|https://www.immoscout24.ch/de/immobilien/mieten/plz-8000-zuerich?pn=8/mieten/4000736020|3 Zimmer|68m²|CHF 3’150.– |0|0|0|0|0|0|1|0|0|0|0|0|0|0|0|Pfirsichstrasse 9|8006 Zürich|68.0|Utoquai 49, 8008 Zürich|47.362030029296875|8.54778003692627|utoquai 49 8008 zuerich 261 zuerich ch zh
8|2 Zimmer, 50m², CHF 2’570.– |2570|Steinstrasse 35, 8003 Zurich|Erstbezug! Neurenovierte 2-Zimmerwohnung mit Balkon an der Steinstrasse 35 in Zürich|https://www.immoscout24.ch/de/immobilien/mieten/plz-8000-zuerich?pn=8/mieten/4000557618|2 Zimmer|50m²|CHF 2’570.– |0|0|0|1|0|0|0|0|0|0|0|0|0|0|0|Steinstrasse 35|8003 Zurich|50.0|Plattenstr. 34, 8032 Zürich|47.37311553955078|8.553730964660645|plattenstrasse 34 8032 zuerich 261 zuerich ch zh
8|5.5 Zimmer, 152m², CHF 4’300.– |4300|Spiserstrasse 15, 8047 Zürich|Traumhafte 5.5 Zimmer Haushälfte!|https://www.immoscout24.ch/de/immobilien/mieten/plz-8000-zuerich?pn=8/mieten/4000418436|5.5 Zimmer|152m²|CHF 4’300.– |0|0|0|0|0|0|0|0|0|0|0|1|0|0|0|Spiserstrasse 15|8047 Zürich|152.0|Hadlaubstr. 73, 8006 Zürich|47.38596725463867|8.551517486572266|hadlaubstrasse 73 8006 zuerich 261 zuerich ch zh
8|1.5 Zimmer, 23m², CHF 1’900.– |1900|Bernerstrasse Süd 169, 8048 Zürich|City Pop - Your flexible solution for long and short stays!|https://www.immoscout24.ch/de/immobilien/mieten/plz-8000-zuerich?pn=8/mieten/3003501705|1.5 Zimmer|23m²|CHF 1’900.– |0|1|0|0|0|0|0|0|0|0|0|0|0|0|0|Bernerstrasse Süd 169|8048 Zürich|23.0|Forsterstrasse 67, 8044 Zürich|47.381378173828125|8.559873580932617|forsterstrasse 67 8044 zuerich 261 zuerich ch zh
8|1.5 Zimmer, 24m², CHF 1’960.– |1960|Hagenholzstrasse 59, 8050 Zürich|City Pop - Your flexible solution for long and short stays!|https://www.immoscout24.ch/de/immobilien/mieten/plz-8000-zuerich?pn=8/mieten/3003381291|1.5 Zimmer|24m²|CHF 1’960.– |0|1|0|0|0|0|0|0|0|0|0|0|0|0|0|Hagenholzstrasse 59|8050 Zürich|24.0|Forsterstrasse 67, 8044 Zürich|47.381378173828125|8.559873580932617|forsterstrasse 67 8044 zuerich 261 zuerich ch zh
8|4.5 Zimmer, 117m², CHF 4’227.– |4227|Käferholzstrasse 42, 8057 Zürich|Modernes wohnen im Guggachpark!|https://www.immoscout24.ch/de/immobilien/mieten/plz-8000-zuerich?pn=8/mieten/4001022282|4.5 Zimmer|117m²|CHF 4’227.– |0|0|0|0|0|0|0|0|0|1|0|0|0|0|0|Käferholzstrasse 42|8057 Zürich|117.0|Albisstr. 124, 8038 Zürich|47.336769104003906|8.52979564666748|albisstrasse 124 8038 zuerich 261 zuerich ch zh
8|2.5 Zimmer, 102m², CHF 4’355.– |4355|Aemtlerstr. 17, 8003 Zürich|Exklusives Loft mit Terrasse, zwischen Schmiede Wiedikon und Goldbrunnenplatz|https://www.immoscout24.ch/de/immobilien/mieten/plz-8000-zuerich?pn=8/mieten/4001022256|2.5 Zimmer|102m²|CHF 4’355.– |0|0|0|0|1|0|0|0|0|0|0|0|0|0|0|Aemtlerstr. 17|8003 Zürich|102.0|Hohlstrasse 485a, 8048 Zürich|47.38874435424805|8.494762420654297|hohlstrasse 485a 8048 zuerich 261 zuerich ch zh
8|3.5 Zimmer, 87m², CHF 3’940.– |3940|Eugen-Huber-Str. 113, 8048 Zürich|Modern Living - Altstetten|https://www.immoscout24.ch/de/immobilien/mieten/plz-8000-zuerich?pn=8/mieten/4001021207|3.5 Zimmer|87m²|CHF 3’940.– |0|0|0|0|0|0|0|1|0|0|0|0|0|0|0|Eugen-Huber-Str. 113|8048 Zürich|87.0|Aemtlerstr. 17, 8003 Zürich|47.37135314941406|8.515939712524414|aemtlerstrasse 17 8003 zuerich 261 zuerich ch zh
8|3 Zimmer, 66m², CHF 1’884.– |1884|Luegislandstr. 56, 8051 Zürich|Mieten ohne Kaution|https://www.immoscout24.ch/de/immobilien/mieten/plz-8000-zuerich?pn=8/mieten/4001020868|3 Zimmer|66m²|CHF 1’884.– |0|0|0|0|0|0|1|0|0|0|0|0|0|0|0|Luegislandstr. 56|8051 Zürich|66.0|Aemtlerstr. 17, 8003 Zürich|47.37135314941406|8.515939712524414|aemtlerstrasse 17 8003 zuerich 261 zuerich ch zh
8|3.5 Zimmer, 73m², CHF 2’000.– |2000|Stiglenstrasse 33, 8052 Zürich|Ruhiges Wohnquartier|https://www.immoscout24.ch/de/immobilien/mieten/plz-8000-zuerich?pn=8/mieten/4001019512|3.5 Zimmer|73m²|CHF 2’000.– |0|0|0|0|0|0|0|1|0|0|0|0|0|0|0|Stiglenstrasse 33|8052 Zürich|73.0|Katharinenweg 5, 8002 Zürich|47.36095428466797|8.52803897857666|katharinenweg 5 8002 zuerich 261 zuerich ch zh
8|4 Zimmer, 80m², CHF 2’620.– |2620|Im Brächli 43, 8053 Zürich|Ansprechende Wohnung an begrünter Lage in Witikon|https://www.immoscout24.ch/de/immobilien/mieten/plz-8000-zuerich?pn=8/mieten/4001018075|4 Zimmer|80m²|CHF 2’620.– |0|0|0|0|0|0|0|0|1|0|0|0|0|0|0|Im Brächli 43|8053 Zürich|80.0|Katharinenweg 5, 8002 Zürich|47.36095428466797|8.52803897857666|katharinenweg 5 8002 zuerich 261 zuerich ch zh
8|2.5 Zimmer, 54m², CHF 1’769.– |1769|Sihlweidstrasse 64, 8041 Zürich-Leimbach|Gemütliche 2.5-Zimmerwohnung in Zürich|https://www.immoscout24.ch/de/immobilien/mieten/plz-8000-zuerich?pn=8/mieten/4001017552|2.5 Zimmer|54m²|CHF 1’769.– |0|0|0|0|1|0|0|0|0|0|0|0|0|0|0|Sihlweidstrasse 64|8041 Zürich-Leimbach|54.0|Katharinenweg 5, 8002 Zürich|47.36095428466797|8.52803897857666|katharinenweg 5 8002 zuerich 261 zuerich ch zh
8|3.5 Zimmer, 97m², CHF 5’080.– |5080|Wuhrstrasse 30, 8003 Zürich|Modern furnished 2-bedroom attic apartement with spacious terrace for rent|https://www.immoscout24.ch/de/immobilien/mieten/plz-8000-zuerich?pn=8/mieten/4001016244|3.5 Zimmer|97m²|CHF 5’080.– |0|0|0|0|0|0|0|1|0|0|0|0|0|0|0|Wuhrstrasse 30|8003 Zürich|97.0|Katharinenweg 5, 8002 Zürich|47.36095428466797|8.52803897857666|katharinenweg 5 8002 zuerich 261 zuerich ch zh
8|2.5 Zimmer, 50m², CHF 2’500.– |2500|Doldertal 19, 8032 Zürich|Wohnen in denkmalgeschütztem Haus an bevorzugter Wohnlage|https://www.immoscout24.ch/de/immobilien/mieten/plz-8000-zuerich?pn=8/mieten/4001015835|2.5 Zimmer|50m²|CHF 2’500.– |0|0|0|0|1|0|0|0|0|0|0|0|0|0|0|Doldertal 19|8032 Zürich|50.0|Baslerstrasse 77, 8048 Zürich|47.386112213134766|8.496638298034668|baslerstrasse 77 8048 zuerich 261 zuerich ch zh
8|2 Zimmer, 56m², CHF 1’830.– |1830|Bombachsteig 6, 8049 Zürich|charmante Wohnung an Zentraler Lage|https://www.immoscout24.ch/de/immobilien/mieten/plz-8000-zuerich?pn=8/mieten/4001015799|2 Zimmer|56m²|CHF 1’830.– |0|0|0|1|0|0|0|0|0|0|0|0|0|0|0|Bombachsteig 6|8049 Zürich|56.0|Baslerstrasse 77, 8048 Zürich|47.386112213134766|8.496638298034668|baslerstrasse 77 8048 zuerich 261 zuerich ch zh
8|6.5 Zimmer, 213m², CHF 8’560.– |8560|Zollikerstrasse 203, 8008 Zürich|GARTENWOHNUNG MIT SEESICHT IM HAMBERGERPARK|https://www.immoscout24.ch/de/immobilien/mieten/plz-8000-zuerich?pn=8/mieten/4001013916|6.5 Zimmer|213m²|CHF 8’560.– |0|0|0|0|0|0|0|0|0|0|0|0|0|1|0|Zollikerstrasse 203|8008 Zürich|213.0|Dorfstrasse 40, 8037 Zürich|47.394588470458984|8.522298812866211|dorfstrasse 40 8037 zuerich 261 zuerich ch zh
8|2 Zimmer, 58m², CHF 2’252.– |2252|Dufourstrasse 123, 8008 Zürich|Wohnung im schönen Seefeld!|https://www.immoscout24.ch/de/immobilien/mieten/plz-8000-zuerich?pn=8/mieten/4001013263|2 Zimmer|58m²|CHF 2’252.– |0|0|0|1|0|0|0|0|0|0|0|0|0|0|0|Dufourstrasse 123|8008 Zürich|58.0|Badenerstr. 157, 8004 Zürich|47.374290466308594|8.521708488464355|badenerstrasse 157 8004 zuerich 261 zuerich ch zh
9|4 Zimmer, 109m², CHF 4’043.– |4043|Freiestrasse 216, 8032 Zürich|Grosszgügige Wohnung im Kreis 7 nähe Hirslanden|https://www.immoscout24.ch/de/immobilien/mieten/plz-8000-zuerich?pn=9/mieten/4001012230|4 Zimmer|109m²|CHF 4’043.– |0|0|0|0|0|0|0|0|1|0|0|0|0|0|0|Freiestrasse 216|8032 Zürich|109.0|Badenerstr. 157, 8004 Zürich|47.374290466308594|8.521708488464355|badenerstrasse 157 8004 zuerich 261 zuerich ch zh
9|2.5 Zimmer, 81m², CHF 3’601.– |3601|Haldenstrasse 14, 8045 Zürich|Wohnung mit hochwertigem Ausbaustandard|https://www.immoscout24.ch/de/immobilien/mieten/plz-8000-zuerich?pn=9/mieten/4001012222|2.5 Zimmer|81m²|CHF 3’601.– |0|0|0|0|1|0|0|0|0|0|0|0|0|0|0|Haldenstrasse 14|8045 Zürich|81.0|Badenerstr. 157, 8004 Zürich|47.374290466308594|8.521708488464355|badenerstrasse 157 8004 zuerich 261 zuerich ch zh
9|2.5 Zimmer, 60m², CHF 3’150.– |3150|Wuhrstrasse 34, 8003 Zürich|Gemütliche 2.5-Zimmerwohnung mit eigener Dachterrasse in Wiedikon zu vermieten|https://www.immoscout24.ch/de/immobilien/mieten/plz-8000-zuerich?pn=9/mieten/4001009549|2.5 Zimmer|60m²|CHF 3’150.– |0|0|0|0|1|0|0|0|0|0|0|0|0|0|0|Wuhrstrasse 34|8003 Zürich|60.0|Badenerstr. 157, 8004 Zürich|47.374290466308594|8.521708488464355|badenerstrasse 157 8004 zuerich 261 zuerich ch zh
9|2.5 Zimmer, 117m², CHF 2’900.– |2900|Eichstrasse 25, 8045 Zürich|Spezielles Wohnerlebnis an zentraler Lage|https://www.immoscout24.ch/de/immobilien/mieten/plz-8000-zuerich?pn=9/mieten/4001002965|2.5 Zimmer|117m²|CHF 2’900.– |0|0|0|0|1|0|0|0|0|0|0|0|0|0|0|Eichstrasse 25|8045 Zürich|117.0|Ankerstrasse 110, 8004 Zürich|47.37609100341797|8.527901649475098|ankerstrasse 110 8004 zuerich 261 zuerich ch zh
9|4.5 Zimmer, 138m², CHF 6’645.– |6645|Freiestrasse 53, 8032 Zürich|Bijou mit eigener Dachterrasse|https://www.immoscout24.ch/de/immobilien/mieten/plz-8000-zuerich?pn=9/mieten/4001002867|4.5 Zimmer|138m²|CHF 6’645.– |0|0|0|0|0|0|0|0|0|1|0|0|0|0|0|Freiestrasse 53|8032 Zürich|138.0|Ankerstrasse 110, 8004 Zürich|47.37609100341797|8.527901649475098|ankerstrasse 110 8004 zuerich 261 zuerich ch zh
9|1 Zimmer, 19m², CHF 1’610.– |1610|Universitätsstrasse 110, 8006 Zürich|Neu sanierte Stadtwohnung|https://www.immoscout24.ch/de/immobilien/mieten/plz-8000-zuerich?pn=9/mieten/4001002856|1 Zimmer|19m²|CHF 1’610.– |1|0|0|0|0|0|0|0|0|0|0|0|0|0|0|Universitätsstrasse 110|8006 Zürich|19.0|Zwirnerstrasse 78, 8041 Zürich|47.337982177734375|8.516444206237793|zwirnerstrasse 78 8041 zuerich 261 zuerich ch zh
9|3.5 Zimmer, 112m², CHF 3’590.– |3590|Giblenstrasse 57, 8049 Zürich|Modernes Wohnen im grünen Stadtteil von Zürich-Höngg|https://www.immoscout24.ch/de/immobilien/mieten/plz-8000-zuerich?pn=9/mieten/4000998352|3.5 Zimmer|112m²|CHF 3’590.– |0|0|0|0|0|0|0|1|0|0|0|0|0|0|0|Giblenstrasse 57|8049 Zürich|112.0|Riedenhaldenstr. 30, 8046 Zürich|47.4159049987793|8.516359329223633|riedenhaldenstrasse 30 8046 zuerich 261 zuerich ch zh
9|3.5 Zimmer, CHF 2’802.– |2802|Uetlibergstrasse 48, 8045 Zürich|Zentral gelegene 3.5 Zimmer-Wohnung mit Balkon|https://www.immoscout24.ch/de/immobilien/mieten/plz-8000-zuerich?pn=9/mieten/4000996411|3.5 Zimmer||CHF 2’802.– |0|0|0|0|0|0|0|1|0|0|0|0|0|0|0|Uetlibergstrasse 48|8045 Zürich||Hädrichstr. 7, 8047 Zürich|47.378292083740234|8.491242408752441|haedrichstrasse 7 8047 zuerich 261 zuerich ch zh
9|3.5 Zimmer, CHF 2’802.– |2802|Uetlibergstrasse 48, 8045 Zürich|Zentral gelegene 3.5 Zimmer-Wohnung mit Balkon|https://www.immoscout24.ch/de/immobilien/mieten/plz-8000-zuerich?pn=9/mieten/4000996345|3.5 Zimmer||CHF 2’802.– |0|0|0|0|0|0|0|1|0|0|0|0|0|0|0|Uetlibergstrasse 48|8045 Zürich||Bachmattstr. 59, 8048 Zürich|47.389041900634766|8.483692169189453|bachmattstrasse 59 8048 zuerich 261 zuerich ch zh
9|4.5 Zimmer, 123m², CHF 4’226.– |4226|Buckhauserstrasse 45, 8048 Zürich|Ideale Wohnung in der Stadt Zürich!|https://www.immoscout24.ch/de/immobilien/mieten/plz-8000-zuerich?pn=9/mieten/4000996231|4.5 Zimmer|123m²|CHF 4’226.– |0|0|0|0|0|0|0|0|0|1|0|0|0|0|0|Buckhauserstrasse 45|8048 Zürich|123.0|Rainfussweg 3, 8038 Zürich|47.34248352050781|8.52997875213623|rainfussweg 3 8038 zuerich 261 zuerich ch zh
9|3.5 Zimmer, 90m², CHF 3’202.– |3202|Buckhauserstrasse 45, 8048 Zürich|Auf der Suche nach einer zentralen und modernen Wohnung?|https://www.immoscout24.ch/de/immobilien/mieten/plz-8000-zuerich?pn=9/mieten/4000996227|3.5 Zimmer|90m²|CHF 3’202.– |0|0|0|0|0|0|0|1|0|0|0|0|0|0|0|Buckhauserstrasse 45|8048 Zürich|90.0|Loogartenstrasse 22, 8048 Zürich|47.389957427978516|8.473957061767578|loogartenstrasse 22 8048 zuerich 261 zuerich ch zh
9|2.5 Zimmer, 51m², CHF 2’730.– |2730|Eugen-Huber-Str. 115, 8048 Zürich|Trendige Wohnung an zentraler Lage|https://www.immoscout24.ch/de/immobilien/mieten/plz-8000-zuerich?pn=9/mieten/4000996225|2.5 Zimmer|51m²|CHF 2’730.– |0|0|0|0|1|0|0|0|0|0|0|0|0|0|0|Eugen-Huber-Str. 115|8048 Zürich|51.0|Welchogasse 5, 8050 Zürich|47.409297943115234|8.545917510986328|welchogasse 5 8050 zuerich 261 zuerich ch zh
9|4.5 Zimmer, 89m², CHF 4’625.– |4625|Seefeldstr. 168, 8008 Zürich|Neu sanierte Liegenschaft im Herzen von Zürich|https://www.immoscout24.ch/de/immobilien/mieten/plz-8000-zuerich?pn=9/mieten/4000994161|4.5 Zimmer|89m²|CHF 4’625.– |0|0|0|0|0|0|0|0|0|1|0|0|0|0|0|Seefeldstr. 168|8008 Zürich|89.0|Langgrütstrasse 103, 8047 Zürich|47.372920989990234|8.495580673217773|langgruetstrasse 103 8047 zuerich 261 zuerich ch zh
9|3.5 Zimmer, 80m², CHF 2’324.– |2324|Heerenschürlistrasse 1, 8051 Zürich|Modern und praktisch|https://www.immoscout24.ch/de/immobilien/mieten/plz-8000-zuerich?pn=9/mieten/4000991243|3.5 Zimmer|80m²|CHF 2’324.– |0|0|0|0|0|0|0|1|0|0|0|0|0|0|0|Heerenschürlistrasse 1|8051 Zürich|80.0|Baslerstrasse 77, 8048 Zürich|47.386112213134766|8.496638298034668|baslerstrasse 77 8048 zuerich 261 zuerich ch zh
9|1 Zimmer, 28m², CHF 1’290.– |1290|Sihlweidstrasse 60, 8041 Zürich-Leimbach|Klein aber fein - schöne 1-Zimmerwohnung in Zürich-Leimbach|https://www.immoscout24.ch/de/immobilien/mieten/plz-8000-zuerich?pn=9/mieten/4000990445|1 Zimmer|28m²|CHF 1’290.– |1|0|0|0|0|0|0|0|0|0|0|0|0|0|0|Sihlweidstrasse 60|8041 Zürich-Leimbach|28.0|Baslerstrasse 77, 8048 Zürich|47.386112213134766|8.496638298034668|baslerstrasse 77 8048 zuerich 261 zuerich ch zh
9|4 Zimmer, 81m², CHF 3’390.– |3390|Forchstrasse 347, 8008 Zürich|Exklusiv Wohnen!|https://www.immoscout24.ch/de/immobilien/mieten/plz-8000-zuerich?pn=9/mieten/4000986863|4 Zimmer|81m²|CHF 3’390.– |0|0|0|0|0|0|0|0|1|0|0|0|0|0|0|Forchstrasse 347|8008 Zürich|81.0|Marienstrasse 20, 8003 Zürich|47.37449264526367|8.517977714538574|marienstrasse 20 8003 zuerich 261 zuerich ch zh
9|2.5 Zimmer, 73m², CHF 3’050.– |3050|Weinbergstrasse 72, 8006 Zürich|Exklusive, totalsanierte Altbauwohnungen im Kreis 6 in Zürich|https://www.immoscout24.ch/de/immobilien/mieten/plz-8000-zuerich?pn=9/mieten/4000976078|2.5 Zimmer|73m²|CHF 3’050.– |0|0|0|0|1|0|0|0|0|0|0|0|0|0|0|Weinbergstrasse 72|8006 Zürich|73.0|Tuggenerstr. 3, 8008 Zürich|47.35748291015625|8.555234909057617|tuggenerstrasse 3 8008 zuerich 261 zuerich ch zh
9|2.5 Zimmer, 63m², CHF 2’535.– |2535|Käferholzstrasse 44, 8057 Zürich|Modernes wohnen im Guggachpark!|https://www.immoscout24.ch/de/immobilien/mieten/plz-8000-zuerich?pn=9/mieten/4000974239|2.5 Zimmer|63m²|CHF 2’535.– |0|0|0|0|1|0|0|0|0|0|0|0|0|0|0|Käferholzstrasse 44|8057 Zürich|63.0|Tuggenerstr. 3, 8008 Zürich|47.35748291015625|8.555234909057617|tuggenerstrasse 3 8008 zuerich 261 zuerich ch zh
9|2 Zimmer, CHF 2’470.– |2470|Hügelstrasse 13, 8002 Zürich|Wohnen in der Nähe vom Sihlcity|https://www.immoscout24.ch/de/immobilien/mieten/plz-8000-zuerich?pn=9/mieten/4000969139|2 Zimmer||CHF 2’470.– |0|0|0|1|0|0|0|0|0|0|0|0|0|0|0|Hügelstrasse 13|8002 Zürich||Forchstrasse 24, 8008 Zürich|47.36378479003906|8.5558443069458|forchstrasse 24 8008 zuerich 261 zuerich ch zh
9|3 Zimmer, 80m², CHF 4’020.– |4020|Forchstrasse 22, 8008 Zürich|Top Lage am Kreuzplatz|https://www.immoscout24.ch/de/immobilien/mieten/plz-8000-zuerich?pn=9/mieten/4000961802|3 Zimmer|80m²|CHF 4’020.– |0|0|0|0|0|0|1|0|0|0|0|0|0|0|0|Forchstrasse 22|8008 Zürich|80.0|Forchstrasse 24, 8008 Zürich|47.36378479003906|8.5558443069458|forchstrasse 24 8008 zuerich 261 zuerich ch zh
10|2 Zimmer, 73m², CHF 6’700.– |6700|Birchstrasse 180, 8050 Zürich|2 Zimmer Seniorenwohnung - Senevita Residenz Nordlicht|https://www.immoscout24.ch/de/immobilien/mieten/plz-8000-zuerich?pn=10/mieten/4000953594|2 Zimmer|73m²|CHF 6’700.– |0|0|0|1|0|0|0|0|0|0|0|0|0|0|0|Birchstrasse 180|8050 Zürich|73.0|Forchstrasse 22, 8008 Zürich|47.36381149291992|8.55556583404541|forchstrasse 22 8008 zuerich 261 zuerich ch zh
10|3 Zimmer, 91m², CHF 2’184.– |2184|Luegislandstr. 56, 8051 Zürich|Mieten ohne Depot|https://www.immoscout24.ch/de/immobilien/mieten/plz-8000-zuerich?pn=10/mieten/4000948202|3 Zimmer|91m²|CHF 2’184.– |0|0|0|0|0|0|1|0|0|0|0|0|0|0|0|Luegislandstr. 56|8051 Zürich|91.0|Forchstrasse 22, 8008 Zürich|47.36381149291992|8.55556583404541|forchstrasse 22 8008 zuerich 261 zuerich ch zh
10|1 Zimmer, 19m², CHF 1’520.– |1520|Universitätsstrasse 110, 8006 Zürich|Ein exklusives Angebot wartet auf Sie - Zentrale Studiowohnung|https://www.immoscout24.ch/de/immobilien/mieten/plz-8000-zuerich?pn=10/mieten/4000948088|1 Zimmer|19m²|CHF 1’520.– |1|0|0|0|0|0|0|0|0|0|0|0|0|0|0|Universitätsstrasse 110|8006 Zürich|19.0|Forchstrasse 22, 8008 Zürich|47.36381149291992|8.55556583404541|forchstrasse 22 8008 zuerich 261 zuerich ch zh
10|4 Zimmer, 85m², CHF 2’544.– |2544|Bombachsteig 8, 8049 Zürich|Städtisch Leben - entspannt Wohnen|https://www.immoscout24.ch/de/immobilien/mieten/plz-8000-zuerich?pn=10/mieten/4000946236|4 Zimmer|85m²|CHF 2’544.– |0|0|0|0|0|0|0|0|1|0|0|0|0|0|0|Bombachsteig 8|8049 Zürich|85.0|8002 Zürich|47.36497497558594|8.537369728088379|beethovenstrasse 1 8002 zuerich 261 zuerich ch zh
10|2 Zimmer, 55m², CHF 4’660.– |4660|Birchstrasse 180, 8050 Zürich|2 Zimmer Seniorenwohnung - Senevita Residenz Nordlicht|https://www.immoscout24.ch/de/immobilien/mieten/plz-8000-zuerich?pn=10/mieten/4000946217|2 Zimmer|55m²|CHF 4’660.– |0|0|0|1|0|0|0|0|0|0|0|0|0|0|0|Birchstrasse 180|8050 Zürich|55.0|8002 Zürich|47.35676193237305|8.528594970703125|kurfirstenstrasse 1 8002 zuerich 261 zuerich ch zh
10|3 Zimmer, 74m², CHF 6’680.– |6680|Birchstrasse 180, 8050 Zürich|3 Zimmer Seniorenwohnung - Senevita Residenz Nordlicht|https://www.immoscout24.ch/de/immobilien/mieten/plz-8000-zuerich?pn=10/mieten/4000940540|3 Zimmer|74m²|CHF 6’680.– |0|0|0|0|0|0|1|0|0|0|0|0|0|0|0|Birchstrasse 180|8050 Zürich|74.0|8002 Zürich|47.364410400390625|8.53575611114502|toedistrasse 1 8002 zuerich 261 zuerich ch zh
10|4 Zimmer, 103m², CHF 4’766.– |4766|Limmatquai 86 / Köngengasse 2, 8001 Zürich|Wohnen am Limmatquai|https://www.immoscout24.ch/de/immobilien/mieten/plz-8000-zuerich?pn=10/mieten/4000931855|4 Zimmer|103m²|CHF 4’766.– |0|0|0|0|0|0|0|0|1|0|0|0|0|0|0|Limmatquai 86 / Köngengasse 2|8001 Zürich|103.0|8002 Zürich|47.36357879638672|8.534124374389648|jenatschstrasse 1 8002 zuerich 261 zuerich ch zh
10|1.5 Zimmer, 25m², CHF 1’915.– |1915|Müllerstrasse 76, 8004 Zürich|Im Herzen von Zürich|https://www.immoscout24.ch/de/immobilien/mieten/plz-8000-zuerich?pn=10/mieten/4000924756|1.5 Zimmer|25m²|CHF 1’915.– |0|1|0|0|0|0|0|0|0|0|0|0|0|0|0|Müllerstrasse 76|8004 Zürich|25.0|8002 Zürich|47.36451721191406|8.532172203063965|tessinerplatz 1 8002 zuerich 261 zuerich ch zh
10|2.5 Zimmer, 61m², CHF 2’481.– |2481|Badenerstrasse 565, 8048 Zürich|Topmoderne Neubauwohnung im Herzen Altstettens zu vermieten!|https://www.immoscout24.ch/de/immobilien/mieten/plz-8000-zuerich?pn=10/mieten/4000894468|2.5 Zimmer|61m²|CHF 2’481.– |0|0|0|0|1|0|0|0|0|0|0|0|0|0|0|Badenerstrasse 565|8048 Zürich|61.0|8002 Zürich|47.361061096191406|8.532576560974121|schulhausstrasse 1 8002 zuerich 261 zuerich ch zh
10|2.5 Zimmer, 50m², CHF 2’730.– |2730|Eugen-Huber-Str. 115, 8048 Zürich|Trendige Wohnung an zentraler Lage|https://www.immoscout24.ch/de/immobilien/mieten/plz-8000-zuerich?pn=10/mieten/4000877993|2.5 Zimmer|50m²|CHF 2’730.– |0|0|0|0|1|0|0|0|0|0|0|0|0|0|0|Eugen-Huber-Str. 115|8048 Zürich|50.0|8002 Zürich|47.362300872802734|8.530669212341309|bluntschlisteig 1 8002 zuerich 261 zuerich ch zh
10|2.5 Zimmer, 64m², CHF 2’780.– |2780|Birmensdorferstrasse 448, 8055 Zürich|Exklusive Neubauwohnungen in Zürich|https://www.immoscout24.ch/de/immobilien/mieten/plz-8000-zuerich?pn=10/mieten/4000874677|2.5 Zimmer|64m²|CHF 2’780.– |0|0|0|0|1|0|0|0|0|0|0|0|0|0|0|Birmensdorferstrasse 448|8055 Zürich|64.0|8002 Zürich|47.3618278503418|8.526631355285645|waffenplatzstrasse 1 8002 zuerich 261 zuerich ch zh
10|2.5 Zimmer, 89m², CHF 3’370.– |3370|Forchstrasse 261, 8032 Zürich|Loftwohnung Deluxe - Ihr Wohntraum wird wahr|https://www.immoscout24.ch/de/immobilien/mieten/plz-8000-zuerich?pn=10/mieten/4000871469|2.5 Zimmer|89m²|CHF 3’370.– |0|0|0|0|1|0|0|0|0|0|0|0|0|0|0|Forchstrasse 261|8032 Zürich|89.0|8002 Zürich|47.360355377197266|8.532285690307617|traubenstrasse 1 8002 zuerich 261 zuerich ch zh
10|2.5 Zimmer, 86m², CHF 3’450.– |3450|Forchstrasse 261, 8032 Zürich|Traumhafte Loftwohnung gesucht?|https://www.immoscout24.ch/de/immobilien/mieten/plz-8000-zuerich?pn=10/mieten/4000871467|2.5 Zimmer|86m²|CHF 3’450.– |0|0|0|0|1|0|0|0|0|0|0|0|0|0|0|Forchstrasse 261|8032 Zürich|86.0|8002 Zürich|47.36404800415039|8.528010368347168|steinentischstrasse 1 8002 zuerich 261 zuerich ch zh
10|2.5 Zimmer, 89m², CHF 3’370.– |3370|Forchstrasse 261, 8032 Zürich|Loftwohnung Deluxe - Ihr Wohntraum wird wahr|https://www.immoscout24.ch/de/immobilien/mieten/plz-8000-zuerich?pn=10/mieten/4000869800|2.5 Zimmer|89m²|CHF 3’370.– |0|0|0|0|1|0|0|0|0|0|0|0|0|0|0|Forchstrasse 261|8032 Zürich|89.0|8002 Zürich|47.356197357177734|8.526772499084473|rieterplatz 1 8002 zuerich 261 zuerich ch zh
10|2.5 Zimmer, 86m², CHF 3’450.– |3450|Forchstrasse 261, 8032 Zürich|Traumhafte Loftwohnung gesucht?|https://www.immoscout24.ch/de/immobilien/mieten/plz-8000-zuerich?pn=10/mieten/4000869781|2.5 Zimmer|86m²|CHF 3’450.– |0|0|0|0|1|0|0|0|0|0|0|0|0|0|0|Forchstrasse 261|8032 Zürich|86.0|8002 Zürich|47.36933517456055|8.534676551818848|schanzeneggstrasse 1 8002 zuerich 261 zuerich ch zh
10|1.5 Zimmer, 40m², CHF 2’010.– |2010|Winterthurerstrasse 616, 8051 Zürich|Letzte Attikawohnung im Meadows - natürlich Nachhaltig|https://www.immoscout24.ch/de/immobilien/mieten/plz-8000-zuerich?pn=10/mieten/4000869492|1.5 Zimmer|40m²|CHF 2’010.– |0|1|0|0|0|0|0|0|0|0|0|0|0|0|0|Winterthurerstrasse 616|8051 Zürich|40.0|8002 Zürich|47.365482330322266|8.531282424926758|ulmbergstrasse 1 8002 zuerich 261 zuerich ch zh
10|1.5 Zimmer, 45m², CHF 2’730.– |2730|Zurlindenstrasse 111, 8003 Zürich|Möbliertes Studio mit Loftcharakter im Herzen von Wiedikon|https://www.immoscout24.ch/de/immobilien/mieten/plz-8000-zuerich?pn=10/mieten/4000857261|1.5 Zimmer|45m²|CHF 2’730.– |0|1|0|0|0|0|0|0|0|0|0|0|0|0|0|Zurlindenstrasse 111|8003 Zürich|45.0|8002 Zürich|47.365013122558594|8.530757904052734|gutenbergstrasse 1 8002 zuerich 261 zuerich ch zh
10|1.5 Zimmer, 45m², CHF 2’730.– |2730|Zurlindenstrasse 111, 8003 Zürich|Möbliertes Studio mit Loftcharakter im Herzen von Wiedikon|https://www.immoscout24.ch/de/immobilien/mieten/plz-8000-zuerich?pn=10/mieten/4000856181|1.5 Zimmer|45m²|CHF 2’730.– |0|1|0|0|0|0|0|0|0|0|0|0|0|0|0|Zurlindenstrasse 111|8003 Zürich|45.0|8002 Zürich|47.363224029541016|8.526062965393066|klopstockstrasse 1 8002 zuerich 261 zuerich ch zh
10|3.5 Zimmer, 76m², CHF 3’410.– |3410|Siewerdtstrasse 19, 8050 Zürich|Erstvermietung - Stilvoll wohnen im Herzen von Oerlikon!!|https://www.immoscout24.ch/de/immobilien/mieten/plz-8000-zuerich?pn=10/mieten/4000843283|3.5 Zimmer|76m²|CHF 3’410.– |0|0|0|0|0|0|0|1|0|0|0|0|0|0|0|Siewerdtstrasse 19|8050 Zürich|76.0|8002 Zürich|47.36601638793945|8.524934768676758|herterbruecke 1 8002 zuerich 261 zuerich ch zh
10|2.5 Zimmer, 64m², CHF 3’280.– |3280|Siewerdtstrasse 19, 8050 Zürich|Erstvermietung - Stilvoll wohnen im Herzen von Oerlikon!!|https://www.immoscout24.ch/de/immobilien/mieten/plz-8000-zuerich?pn=10/mieten/4000843282|2.5 Zimmer|64m²|CHF 3’280.– |0|0|0|0|1|0|0|0|0|0|0|0|0|0|0|Siewerdtstrasse 19|8050 Zürich|64.0|8002 Zürich|47.364768981933594|8.531177520751953|bederstrasse 1 8002 zuerich 261 zuerich ch zh
11|3.5 Zimmer, 76m², CHF 3’410.– |3410|Siewerdtstrasse 19, 8050 Zürich|Erstvermietung - Stilvoll wohnen im Herzen von Oerlikon!!|https://www.immoscout24.ch/de/immobilien/mieten/plz-8000-zuerich?pn=11/mieten/4000842938|3.5 Zimmer|76m²|CHF 3’410.– |0|0|0|0|0|0|0|1|0|0|0|0|0|0|0|Siewerdtstrasse 19|8050 Zürich|76.0|8002 Zürich|47.363861083984375|8.534781455993652|genferstrasse 1 8002 zuerich 261 zuerich ch zh
11|2.5 Zimmer, 64m², CHF 3’280.– |3280|Siewerdtstrasse 19, 8050 Zürich|Erstvermietung - Stilvoll wohnen im Herzen von Oerlikon!!|https://www.immoscout24.ch/de/immobilien/mieten/plz-8000-zuerich?pn=11/mieten/4000842937|2.5 Zimmer|64m²|CHF 3’280.– |0|0|0|0|1|0|0|0|0|0|0|0|0|0|0|Siewerdtstrasse 19|8050 Zürich|64.0|8002 Zürich|47.364070892333984|8.52786922454834|steinentischstrasse 1a 8002 zuerich 261 zuerich ch zh
11|5.5 Zimmer, 146m², CHF 7’250.– |7250|Auf der Mauer 13, 8001 Zürich|Moderner Altbaucharme an grandioser Lage|https://www.immoscout24.ch/de/immobilien/mieten/plz-8000-zuerich?pn=11/mieten/4000835612|5.5 Zimmer|146m²|CHF 7’250.– |0|0|0|0|0|0|0|0|0|0|0|1|0|0|0|Auf der Mauer 13|8001 Zürich|146.0|8002 Zürich|47.363216400146484|8.525934219360352|klopstockstrasse 1a 8002 zuerich 261 zuerich ch zh
11|4.5 Zimmer, 134m², CHF 6’950.– |6950|Auf der Mauer 13, 8001 Zürich|Moderner Altbaucharme an grandioser Lage|https://www.immoscout24.ch/de/immobilien/mieten/plz-8000-zuerich?pn=11/mieten/4000835611|4.5 Zimmer|134m²|CHF 6’950.– |0|0|0|0|0|0|0|0|0|1|0|0|0|0|0|Auf der Mauer 13|8001 Zürich|134.0|8002 Zürich|47.3622932434082|8.535627365112305|mythenquai 1 8002 zuerich 261 zuerich ch zh
11|3.5 Zimmer, 64m², CHF 3’015.– |3015|Bühlstrasse 10, 8055 Zürich|A wonderful apartment in a central location|https://www.immoscout24.ch/de/immobilien/mieten/plz-8000-zuerich?pn=11/mieten/4000805171|3.5 Zimmer|64m²|CHF 3’015.– |0|0|0|0|0|0|0|1|0|0|0|0|0|0|0|Bühlstrasse 10|8055 Zürich|64.0|8002 Zürich|47.36430358886719|8.535305976867676|toedistrasse 1a 8002 zuerich 261 zuerich ch zh
11|3.5 Zimmer, 84m², CHF 2’500.– |2500|Grossackerstrasse 71, 8041 Zürich|helle 3.5-Zimmer-Wohnung in ruhiger Lage|https://www.immoscout24.ch/de/immobilien/mieten/plz-8000-zuerich?pn=11/mieten/4000803877|3.5 Zimmer|84m²|CHF 2’500.– |0|0|0|0|0|0|0|1|0|0|0|0|0|0|0|Grossackerstrasse 71|8041 Zürich|84.0|8002 Zürich|47.366092681884766|8.525068283081055|herterbruecke 1a 8002 zuerich 261 zuerich ch zh
11|3.5 Zimmer, 103m², CHF 3’750.– |3750|Frohalpstrasse 89, 8038 Zürich|Neubauwohnungen mit grossen Balkonen an zentraler Lage|https://www.immoscout24.ch/de/immobilien/mieten/plz-8000-zuerich?pn=11/mieten/4000800674|3.5 Zimmer|103m²|CHF 3’750.– |0|0|0|0|0|0|0|1|0|0|0|0|0|0|0|Frohalpstrasse 89|8038 Zürich|103.0|8002 Zürich|47.3667106628418|8.53267765045166|freigutstrasse 1a 8002 zuerich 261 zuerich ch zh
11|2.5 Zimmer, 64m², CHF 2’650.– |2650|Frohalpstrasse 89, 8038 Zürich|Neubauwohnungen mit grossen Balkonen an zentraler Lage|https://www.immoscout24.ch/de/immobilien/mieten/plz-8000-zuerich?pn=11/mieten/4000800605|2.5 Zimmer|64m²|CHF 2’650.– |0|0|0|0|1|0|0|0|0|0|0|0|0|0|0|Frohalpstrasse 89|8038 Zürich|64.0|8002 Zürich|47.363426208496094|8.534769058227539|general-wille-strasse 1 8002 zuerich 261 zuerich ch zh
11|1 Zimmer, 27m², CHF 1’850.– |1850|Steinstrasse 35 (S3), 8003 Zürich|For Expats - Cozy furnished Studio apartment @Steinstrasse 35, 8003 Zurich (S-3)|https://www.immoscout24.ch/de/immobilien/mieten/plz-8000-zuerich?pn=11/mieten/4000782196|1 Zimmer|27m²|CHF 1’850.– |1|0|0|0|0|0|0|0|0|0|0|0|0|0|0|Steinstrasse 35 (S3)|8003 Zürich|27.0|8002 Zürich|47.36562728881836|8.538392066955566|claridenstrasse 1 8002 zuerich 261 zuerich ch zh
11|4.5 Zimmer, 95m², CHF 3’550.– |3550|Bühlstrasse 10, 8055 Zürich|Eine wunderbare Wohnung an zentraler Lage|https://www.immoscout24.ch/de/immobilien/mieten/plz-8000-zuerich?pn=11/mieten/4000754156|4.5 Zimmer|95m²|CHF 3’550.– |0|0|0|0|0|0|0|0|0|1|0|0|0|0|0|Bühlstrasse 10|8055 Zürich|95.0|8002 Zürich|47.36622619628906|8.537848472595215|gotthardstrasse 1 8002 zuerich 261 zuerich ch zh
11|6 Zimmer, 170m², CHF 6’830.– |6830|Lunastrasse 2, 8032 Zürich|Erstvermietung im schönen Hottingen|https://www.immoscout24.ch/de/immobilien/mieten/plz-8000-zuerich?pn=11/mieten/4000749519|6 Zimmer|170m²|CHF 6’830.– |0|0|0|0|0|0|0|0|0|0|0|0|1|0|0|Lunastrasse 2|8032 Zürich|170.0|8002 Zürich|47.365867614746094|8.531871795654297|seestrasse 2 8002 zuerich 261 zuerich ch zh
11|4.5 Zimmer, 90m², CHF 4’670.– |4670|Kreuzstrasse 78, 8032 Zürich|Erstvermietung nach Sanierung am Kreuzplatz|https://www.immoscout24.ch/de/immobilien/mieten/plz-8000-zuerich?pn=11/mieten/4000693401|4.5 Zimmer|90m²|CHF 4’670.– |0|0|0|0|0|0|0|0|0|1|0|0|0|0|0|Kreuzstrasse 78|8032 Zürich|90.0|8002 Zürich|47.366943359375|8.528063774108887|brandschenkesteig 2 8002 zuerich 261 zuerich ch zh
11|3.5 Zimmer, 76m², CHF 3’930.– |3930|Kreuzstrasse 78, 8032 Zürich|Stilvolles Wohnen direkt am Kreuzplatz|https://www.immoscout24.ch/de/immobilien/mieten/plz-8000-zuerich?pn=11/mieten/4000693385|3.5 Zimmer|76m²|CHF 3’930.– |0|0|0|0|0|0|0|1|0|0|0|0|0|0|0|Kreuzstrasse 78|8032 Zürich|76.0|8002 Zürich|47.3573112487793|8.527704238891602|kurfirstensteig 2 8002 zuerich 261 zuerich ch zh
11|2.5 Zimmer, 70m², CHF 3’562.– |3562|Jenatschstrasse 3, 8002 Zürich|Moderne Altbauwohnung in Seenähe|https://www.immoscout24.ch/de/immobilien/mieten/plz-8000-zuerich?pn=11/mieten/4000454280|2.5 Zimmer|70m²|CHF 3’562.– |0|0|0|0|1|0|0|0|0|0|0|0|0|0|0|Jenatschstrasse 3|8002 Zürich|70.0|8002 Zürich|47.3656120300293|8.533560752868652|bodmerstrasse 2 8002 zuerich 261 zuerich ch zh
11|4 Zimmer, 85m², CHF 1’954.– |1954|Hugostrasse 10, 8050 Zürich|Zentrale Wohnung nähe Bahnhof Oerlikon|https://www.immoscout24.ch/de/immobilien/mieten/plz-8000-zuerich?pn=11/mieten/4001022262|4 Zimmer|85m²|CHF 1’954.– |0|0|0|0|0|0|0|0|1|0|0|0|0|0|0|Hugostrasse 10|8050 Zürich|85.0|8002 Zürich|47.36400604248047|8.535189628601074|genferstrasse 2 8002 zuerich 261 zuerich ch zh
11|6.5 Zimmer, 218m², CHF 11’100.– |11100|Zollikerstrasse 175a, 8008 Zürich|Exklusive Einfamilienhäuser im Villengarten - Grün.Modern.Hochwertig.|https://www.immoscout24.ch/de/immobilien/mieten/plz-8000-zuerich?pn=11/mieten/4001021594|6.5 Zimmer|218m²|CHF 11’100.– |0|0|0|0|0|0|0|0|0|0|0|0|0|1|0|Zollikerstrasse 175a|8008 Zürich|218.0|8002 Zürich|47.36056137084961|8.532102584838867|traubenstrasse 2 8002 zuerich 261 zuerich ch zh
11|2.5 Zimmer, 63m², CHF 2’460.– |2460|Albulastrasse 42, 8048 Zürich|Modernes Wohnen im angesagten Labitzke Areal!|https://www.immoscout24.ch/de/immobilien/mieten/plz-8000-zuerich?pn=11/mieten/4001019403|2.5 Zimmer|63m²|CHF 2’460.– |0|0|0|0|1|0|0|0|0|0|0|0|0|0|0|Albulastrasse 42|8048 Zürich|63.0|8002 Zürich|47.36089324951172|8.525444030761719|rieterstrasse 2 8002 zuerich 261 zuerich ch zh
11|2.5 Zimmer, 80m², CHF 4’150.– |4150|Mainaustrasse 19, 8008 Zürich|Traumhafte 2.5-Zimmerwohnung mit atemberaubendem Seeblick|https://www.immoscout24.ch/de/immobilien/mieten/plz-8000-zuerich?pn=11/mieten/4001003176|2.5 Zimmer|80m²|CHF 4’150.– |0|0|0|0|1|0|0|0|0|0|0|0|0|0|0|Mainaustrasse 19|8008 Zürich|80.0|8002 Zürich|47.366844177246094|8.533121109008789|freigutstrasse 2 8002 zuerich 261 zuerich ch zh
11|1.5 Zimmer, CHF 1’990.– |1990|Brauerstrasse 27, 8004 Zürich|Mitten im (Nacht)Leben|https://www.immoscout24.ch/de/immobilien/mieten/plz-8000-zuerich?pn=11/mieten/4001002740|1.5 Zimmer||CHF 1’990.– |0|1|0|0|0|0|0|0|0|0|0|0|0|0|0|Brauerstrasse 27|8004 Zürich||8002 Zürich|47.362117767333984|8.535065650939941|mythenquai 2 8002 zuerich 261 zuerich ch zh
11|3.5 Zimmer, 58m², CHF 3’180.– |3180|Konradstrasse 71, 8005 Zürich|Traumhafte Stadtwohnung 4 Gehminuten vom HB|https://www.immoscout24.ch/de/immobilien/mieten/plz-8000-zuerich?pn=11/mieten/4000999150|3.5 Zimmer|58m²|CHF 3’180.– |0|0|0|0|0|0|0|1|0|0|0|0|0|0|0|Konradstrasse 71|8005 Zürich|58.0|8002 Zürich|47.36460876464844|8.534222602844238|spluegenstrasse 2 8002 zuerich 261 zuerich ch zh
13|26m², CHF 3’000.– |3000|Wolframplatz 1, 8045 Zurich|Studio Apartment Junior|https://www.immoscout24.ch/de/immobilien/mieten/plz-8000-zuerich?pn=13/mieten/3000389845|1 Zimmer|26m²|CHF 3’000.– |1|0|0|0|0|0|0|0|0|0|0|0|0|0|0|Wolframplatz 1|8045 Zurich|26.0|8002 Zürich|47.365299224853516|8.53133487701416|bederstrasse 2 8002 zuerich 261 zuerich ch zh
13|45m², CHF 4’038.– |4038|Wolframplatz 1, 8045 Zurich|Duplex Apartment Junior|https://www.immoscout24.ch/de/immobilien/mieten/plz-8000-zuerich?pn=13/mieten/3000389841||45m²|CHF 4’038.– |0|0|0|0|0|0|0|0|0|0|0|0|0|0|0|Wolframplatz 1|8045 Zurich|45.0|8002 Zürich|47.35255813598633|8.524262428283691|gfellstrasse 2 8002 zuerich 261 zuerich ch zh
13|1 Zimmer, 17m², CHF 1’500.– |1500|Seestrasse 65, 8002 Zürich|1-Zimmer-Studio - befristet bis 30.11.2024|https://www.immoscout24.ch/de/immobilien/mieten/plz-8000-zuerich?pn=13/mieten/4001022394|1 Zimmer|17m²|CHF 1’500.– |1|0|0|0|0|0|0|0|0|0|0|0|0|0|0|Seestrasse 65|8002 Zürich|17.0|8002 Zürich|47.358455657958984|8.526678085327148|huegelstrasse 2a 8002 zuerich 261 zuerich ch zh
13|13 Zimmer, 450m², CHF 15’300.– |15300|8048 Zürich|EDEL MÖBLIERTES EINFAMILIENHAUS, MIT GROSSEM GARTEN UND POOL|https://www.immoscout24.ch/de/immobilien/mieten/plz-8000-zuerich?pn=13/mieten/4001021704|13 Zimmer|450m²|CHF 15’300.– |0|0|1|0|0|0|0|0|0|0|0|0|0|0|0||8048 Zürich|450.0|8002 Zürich|47.361480712890625|8.534687042236328|marsstrasse 2 8002 zuerich 261 zuerich ch zh
13|1 Zimmer, 186m², CHF 4’990.– |4990|Hardturmstrasse 253, 8005 Zürich|Modernes Wohnen in Zürich-West|https://www.immoscout24.ch/de/immobilien/mieten/plz-8000-zuerich?pn=13/mieten/4001019647|1 Zimmer|186m²|CHF 4’990.– |1|0|0|0|0|0|0|0|0|0|0|0|0|0|0|Hardturmstrasse 253|8005 Zürich|186.0|8002 Zürich|47.36518096923828|8.537712097167969|beethovenstrasse 2 8002 zuerich 261 zuerich ch zh
13|1.5 Zimmer, 25m², CHF 1’525.– |1525|Neptunstrasse 59, 8032 Zürich|SCHÖNE ZENTRALE 1,5-ZIMMERWOHNUNG IN DER NÄHE VOM KREUZPLATZ|https://www.immoscout24.ch/de/immobilien/mieten/plz-8000-zuerich?pn=13/mieten/4001019610|1.5 Zimmer|25m²|CHF 1’525.– |0|1|0|0|0|0|0|0|0|0|0|0|0|0|0|Neptunstrasse 59|8032 Zürich|25.0|8002 Zürich|47.363521575927734|8.534818649291992|general-wille-strasse 2 8002 zuerich 261 zuerich ch zh
13|1 Zimmer, 186m², CHF 4’990.– |4990|Hardturmstrasse 253, 8005 Zürich|Modernes Wohnen in Zürich-West|https://www.immoscout24.ch/de/immobilien/mieten/plz-8000-zuerich?pn=13/mieten/4001019452|1 Zimmer|186m²|CHF 4’990.– |1|0|0|0|0|0|0|0|0|0|0|0|0|0|0|Hardturmstrasse 253|8005 Zürich|186.0|8002 Zürich|47.3651237487793|8.537248611450195|beethovenstrasse 3 8002 zuerich 261 zuerich ch zh
13|2.5 Zimmer, 55m², CHF 2’485.– |2485|Bellariastrasse 59, 8038 Zürich|Suchen Sie eine trendige Attikawohnung?|https://www.immoscout24.ch/de/immobilien/mieten/plz-8000-zuerich?pn=13/mieten/4001018638|2.5 Zimmer|55m²|CHF 2’485.– |0|0|0|0|1|0|0|0|0|0|0|0|0|0|0|Bellariastrasse 59|8038 Zürich|55.0|8002 Zürich|47.3653564453125|8.533515930175781|bodmerstrasse 3 8002 zuerich 261 zuerich ch zh
13|2.5 Zimmer, 50m², CHF 3’710.– |3710|Rotachstrasse 20, 8003 Zürich|Modern furnished 1-bedroom attic apartment with weekly cleaning service for rent|https://www.immoscout24.ch/de/immobilien/mieten/plz-8000-zuerich?pn=13/mieten/4001016253|2.5 Zimmer|50m²|CHF 3’710.– |0|0|0|0|1|0|0|0|0|0|0|0|0|0|0|Rotachstrasse 20|8003 Zürich|50.0|8002 Zürich|47.356719970703125|8.52820873260498|kurfirstenstrasse 3 8002 zuerich 261 zuerich ch zh
13|2.5 Zimmer, 60m², CHF 3’710.– |3710|Kalkbreitestrasse 41, 8003 Zürich|Spacious modern furnished 1-bedroom apartment with balcony and weekly cleaning service for rent|https://www.immoscout24.ch/de/immobilien/mieten/plz-8000-zuerich?pn=13/mieten/4001016239|2.5 Zimmer|60m²|CHF 3’710.– |0|0|0|0|1|0|0|0|0|0|0|0|0|0|0|Kalkbreitestrasse 41|8003 Zürich|60.0|8002 Zürich|47.365421295166016|8.532084465026855|seestrasse 3 8002 zuerich 261 zuerich ch zh
13|1.5 Zimmer, 60m², CHF 2’480.– |2480|Hohlstrasse 409, 8048 Zürich|1 ½ Zimmer-Wohnung, 8048 Zurich|https://www.immoscout24.ch/de/immobilien/mieten/plz-8000-zuerich?pn=13/mieten/4001014187|1.5 Zimmer|60m²|CHF 2’480.– |0|1|0|0|0|0|0|0|0|0|0|0|0|0|0|Hohlstrasse 409|8048 Zürich|60.0|8002 Zürich|47.35933303833008|8.530896186828613|gablerstrasse 3 8002 zuerich 261 zuerich ch zh
13|4 Zimmer, 107m², CHF 3’227.– |3227|Max Bill Platz 9, 8050 Zürich|Attraktive Wohnung an top Wohnlage!|https://www.immoscout24.ch/de/immobilien/mieten/plz-8000-zuerich?pn=13/mieten/4001012080|4 Zimmer|107m²|CHF 3’227.– |0|0|0|0|0|0|0|0|1|0|0|0|0|0|0|Max Bill Platz 9|8050 Zürich|107.0|8002 Zürich|47.35333251953125|8.526755332946777|effingerstrasse 3 8002 zuerich 261 zuerich ch zh
13|3.5 Zimmer, 70m², CHF 2’120.– |2120|Winterthurerstrasse 282, 8057 Zürich|Tolle Wohnung an Top-Lage: Ihr neues Zuhause in Zürich wartet!|https://www.immoscout24.ch/de/immobilien/mieten/plz-8000-zuerich?pn=13/mieten/4001011185|3.5 Zimmer|70m²|CHF 2’120.– |0|0|0|0|0|0|0|1|0|0|0|0|0|0|0|Winterthurerstrasse 282|8057 Zürich|70.0|8002 Zürich|47.360862731933594|8.528315544128418|katharinenweg 3 8002 zuerich 261 zuerich ch zh
13|3 Zimmer, 62m², CHF 2’850.– |2850|Feldeggstr. 53, 8008 Zürich|Zentral gelegene 3 Zimmer-Wohnung im Seefeld mieten|https://www.immoscout24.ch/de/immobilien/mieten/plz-8000-zuerich?pn=13/mieten/4001010484|3 Zimmer|62m²|CHF 2’850.– |0|0|0|0|0|0|1|0|0|0|0|0|0|0|0|Feldeggstr. 53|8008 Zürich|62.0|8002 Zürich|47.36497497558594|8.537369728088379|beethovenstrasse 1 8002 zuerich 261 zuerich ch zh
13|2 Zimmer, 50m², CHF 2’380.– |2380|Alderstr. 47, 8008 Zürich|Wohnen an ruhiger und zentraler Lage|https://www.immoscout24.ch/de/immobilien/mieten/plz-8000-zuerich?pn=13/mieten/4001010478|2 Zimmer|50m²|CHF 2’380.– |0|0|0|1|0|0|0|0|0|0|0|0|0|0|0|Alderstr. 47|8008 Zürich|50.0|8002 Zürich|47.35676193237305|8.528594970703125|kurfirstenstrasse 1 8002 zuerich 261 zuerich ch zh
13|2.5 Zimmer, 63m², CHF 2’630.– |2630|Feldblumenweg 14, 8048 Zürich|Suchen Sie ein neues Zuhause in Zürich Altstetten?|https://www.immoscout24.ch/de/immobilien/mieten/plz-8000-zuerich?pn=13/mieten/4001004868|2.5 Zimmer|63m²|CHF 2’630.– |0|0|0|0|1|0|0|0|0|0|0|0|0|0|0|Feldblumenweg 14|8048 Zürich|63.0|8002 Zürich|47.364410400390625|8.53575611114502|toedistrasse 1 8002 zuerich 261 zuerich ch zh
13|3.5 Zimmer, 87m², CHF 2’920.– |2920|Hohlstr. 52, 8004 Zürich|Wohnen im Herzen der Stadt Zürich|https://www.immoscout24.ch/de/immobilien/mieten/plz-8000-zuerich?pn=13/mieten/4001004836|3.5 Zimmer|87m²|CHF 2’920.– |0|0|0|0|0|0|0|1|0|0|0|0|0|0|0|Hohlstr. 52|8004 Zürich|87.0|8002 Zürich|47.36357879638672|8.534124374389648|jenatschstrasse 1 8002 zuerich 261 zuerich ch zh
13|2.5 Zimmer, 63m², CHF 2’630.– |2630|Feldblumenweg 14, 8048 Zürich|Suchen Sie ein neues Zuhause in Zürich Altstetten?|https://www.immoscout24.ch/de/immobilien/mieten/plz-8000-zuerich?pn=13/mieten/4001004703|2.5 Zimmer|63m²|CHF 2’630.– |0|0|0|0|1|0|0|0|0|0|0|0|0|0|0|Feldblumenweg 14|8048 Zürich|63.0|8002 Zürich|47.36451721191406|8.532172203063965|tessinerplatz 1 8002 zuerich 261 zuerich ch zh
13|3.5 Zimmer, 103m², CHF 3’000.– |3000|Hagenholzstrasse 76, 8050 Zürich|Wir suchen genau Sie|https://www.immoscout24.ch/de/immobilien/mieten/plz-8000-zuerich?pn=13/mieten/4001003651|3.5 Zimmer|103m²|CHF 3’000.– |0|0|0|0|0|0|0|1|0|0|0|0|0|0|0|Hagenholzstrasse 76|8050 Zürich|103.0|8002 Zürich|47.361061096191406|8.532576560974121|schulhausstrasse 1 8002 zuerich 261 zuerich ch zh
13|2.5 Zimmer, 58m², CHF 1’849.– |1849|Schwandenholzstrasse 224, 8046 Zürich|Grosszügige Dachgeschosswohnung im grünen Schwandenholz|https://www.immoscout24.ch/de/immobilien/mieten/plz-8000-zuerich?pn=13/mieten/4001003364|2.5 Zimmer|58m²|CHF 1’849.– |0|0|0|0|1|0|0|0|0|0|0|0|0|0|0|Schwandenholzstrasse 224|8046 Zürich|58.0|8002 Zürich|47.362300872802734|8.530669212341309|bluntschlisteig 1 8002 zuerich 261 zuerich ch zh
14|3.5 Zimmer, 114m², CHF 3’985.– |3985|Binzallee 24, 8055 Zürich|Wohnen am Fusse des Uetlibergs|https://www.immoscout24.ch/de/immobilien/mieten/plz-8000-zuerich?pn=14/mieten/4001003324|3.5 Zimmer|114m²|CHF 3’985.– |0|0|0|0|0|0|0|1|0|0|0|0|0|0|0|Binzallee 24|8055 Zürich|114.0|8002 Zürich|47.3618278503418|8.526631355285645|waffenplatzstrasse 1 8002 zuerich 261 zuerich ch zh
14|3.5 Zimmer, 114m², CHF 3’985.– |3985|Binzallee 24, 8055 Zürich|Wohnen am Fusse des Uetlibergs|https://www.immoscout24.ch/de/immobilien/mieten/plz-8000-zuerich?pn=14/mieten/4001003210|3.5 Zimmer|114m²|CHF 3’985.– |0|0|0|0|0|0|0|1|0|0|0|0|0|0|0|Binzallee 24|8055 Zürich|114.0|8002 Zürich|47.360355377197266|8.532285690307617|traubenstrasse 1 8002 zuerich 261 zuerich ch zh
14|2.5 Zimmer, 69m², CHF 2’990.– |2990|Badenerstr. 136, 8004 Zürich|Luxuswohnung Ecke Langstrasse/Badenerstrasse - im Herzen vom Kreis 4|https://www.immoscout24.ch/de/immobilien/mieten/plz-8000-zuerich?pn=14/mieten/4000997626|2.5 Zimmer|69m²|CHF 2’990.– |0|0|0|0|1|0|0|0|0|0|0|0|0|0|0|Badenerstr. 136|8004 Zürich|69.0|8002 Zürich|47.36404800415039|8.528010368347168|steinentischstrasse 1 8002 zuerich 261 zuerich ch zh
14|2.5 Zimmer, 68m², CHF 2’990.– |2990|Badenerstr. 136, 8004 Zürich|Moderne Stadtwohnung mitten in Zürich|https://www.immoscout24.ch/de/immobilien/mieten/plz-8000-zuerich?pn=14/mieten/4000997625|2.5 Zimmer|68m²|CHF 2’990.– |0|0|0|0|1|0|0|0|0|0|0|0|0|0|0|Badenerstr. 136|8004 Zürich|68.0|8002 Zürich|47.356197357177734|8.526772499084473|rieterplatz 1 8002 zuerich 261 zuerich ch zh
14|2 Zimmer, 46m², CHF 2’380.– |2380|Grubenackerstrasse 71, 8052 Zürich|Traumhafte Neu renovierte Wohnungen|https://www.immoscout24.ch/de/immobilien/mieten/plz-8000-zuerich?pn=14/mieten/4000997569|2 Zimmer|46m²|CHF 2’380.– |0|0|0|1|0|0|0|0|0|0|0|0|0|0|0|Grubenackerstrasse 71|8052 Zürich|46.0|8002 Zürich|47.36933517456055|8.534676551818848|schanzeneggstrasse 1 8002 zuerich 261 zuerich ch zh
14|3.5 Zimmer, 118m², CHF 2’750.– |2750|hardturmstrasse 122a, 8005 Zürich|sublet 3 - 3.5 rooms in large, sunny, gorgeous, 4.5 room apartment on river. 8 minutes from main train station.|https://www.immoscout24.ch/de/immobilien/mieten/plz-8000-zuerich?pn=14/mieten/4000996671|3.5 Zimmer|118m²|CHF 2’750.– |0|0|0|0|0|0|0|1|0|0|0|0|0|0|0|hardturmstrasse 122a|8005 Zürich|118.0|8002 Zürich|47.365482330322266|8.531282424926758|ulmbergstrasse 1 8002 zuerich 261 zuerich ch zh
14|3.5 Zimmer, 91m², CHF 4’380.– |4380|Grabenwies 30, 8057 Zürich|"ERSTVERMIETUNG ""ALLENMOOS"""|https://www.immoscout24.ch/de/immobilien/mieten/plz-8000-zuerich?pn=14/mieten/4000996357|3.5 Zimmer|91m²|CHF 4’380.– |0|0|0|0|0|0|0|1|0|0|0|0|0|0|0|Grabenwies 30|8057 Zürich|91.0|8002 Zürich|47.365013122558594|8.530757904052734|gutenbergstrasse 1 8002 zuerich 261 zuerich ch zh
14|2.5 Zimmer, CHF 2’480.– |2480|Schrennengasse 6, 8003 Zürich|Panorama über den Dächern der City|https://www.immoscout24.ch/de/immobilien/mieten/plz-8000-zuerich?pn=14/mieten/4000996046|2.5 Zimmer||CHF 2’480.– |0|0|0|0|1|0|0|0|0|0|0|0|0|0|0|Schrennengasse 6|8003 Zürich||8002 Zürich|47.363224029541016|8.526062965393066|klopstockstrasse 1 8002 zuerich 261 zuerich ch zh
14|3 Zimmer, 55m², CHF 2’200.– |2200|Waldstrasse 14, 8046 Zürich|Ihre Wohnung in der nähe des Bucheggplatz!|https://www.immoscout24.ch/de/immobilien/mieten/plz-8000-zuerich?pn=14/mieten/4000994311|3 Zimmer|55m²|CHF 2’200.– |0|0|0|0|0|0|1|0|0|0|0|0|0|0|0|Waldstrasse 14|8046 Zürich|55.0|8002 Zürich|47.36601638793945|8.524934768676758|herterbruecke 1 8002 zuerich 261 zuerich ch zh
14|2 Zimmer, 52m², CHF 2’760.– |2760|Zeltweg 49, 8032 Zürich|Hübsche Altbauwohnung gleich beim Kunsthaus Zürich|https://www.immoscout24.ch/de/immobilien/mieten/plz-8000-zuerich?pn=14/mieten/4000993374|2 Zimmer|52m²|CHF 2’760.– |0|0|0|1|0|0|0|0|0|0|0|0|0|0|0|Zeltweg 49|8032 Zürich|52.0|8002 Zürich|47.364768981933594|8.531177520751953|bederstrasse 1 8002 zuerich 261 zuerich ch zh
14|3 Zimmer, 80m², CHF 3’290.– |3290|Badenerstr. 274, 8004 Zürich|3 Zimmer Wohnung plus eigenes Untergeschoss!|https://www.immoscout24.ch/de/immobilien/mieten/plz-8000-zuerich?pn=14/mieten/4000990011|3 Zimmer|80m²|CHF 3’290.– |0|0|0|0|0|0|1|0|0|0|0|0|0|0|0|Badenerstr. 274|8004 Zürich|80.0|8002 Zürich|47.363861083984375|8.534781455993652|genferstrasse 1 8002 zuerich 261 zuerich ch zh
14|2.5 Zimmer, 58m², CHF 2’290.– |2290|Schaffhauserstrasse 439, 8050 Zürich|Charmante 2.5-Zimmerwohnung im Herzen von Zürich|https://www.immoscout24.ch/de/immobilien/mieten/plz-8000-zuerich?pn=14/mieten/4000989654|2.5 Zimmer|58m²|CHF 2’290.– |0|0|0|0|1|0|0|0|0|0|0|0|0|0|0|Schaffhauserstrasse 439|8050 Zürich|58.0|8002 Zürich|47.364070892333984|8.52786922454834|steinentischstrasse 1a 8002 zuerich 261 zuerich ch zh
14|2.5 Zimmer, 60m², CHF 2’250.– |2250|Schaffhauserstrasse 439, 8050 Zürich|Charmante 2.5-Zimmerwohnung im Herzen von Zürich|https://www.immoscout24.ch/de/immobilien/mieten/plz-8000-zuerich?pn=14/mieten/4000989653|2.5 Zimmer|60m²|CHF 2’250.– |0|0|0|0|1|0|0|0|0|0|0|0|0|0|0|Schaffhauserstrasse 439|8050 Zürich|60.0|8002 Zürich|47.363216400146484|8.525934219360352|klopstockstrasse 1a 8002 zuerich 261 zuerich ch zh
14|2.5 Zimmer, 63m², CHF 2’990.– |2990|Limmatstrasse 27, 8005 Zürich|Charmante 2.5-Zimmerwohnung mit Dachfenstern|https://www.immoscout24.ch/de/immobilien/mieten/plz-8000-zuerich?pn=14/mieten/4000989179|2.5 Zimmer|63m²|CHF 2’990.– |0|0|0|0|1|0|0|0|0|0|0|0|0|0|0|Limmatstrasse 27|8005 Zürich|63.0|8002 Zürich|47.3622932434082|8.535627365112305|mythenquai 1 8002 zuerich 261 zuerich ch zh
14|2.5 Zimmer, 53m², CHF 2’890.– |2890|Limmatstrasse 27, 8005 Zürich|Im trendigen Kreis 5 top moderne 2.5 Zimmerwohnung|https://www.immoscout24.ch/de/immobilien/mieten/plz-8000-zuerich?pn=14/mieten/4000989178|2.5 Zimmer|53m²|CHF 2’890.– |0|0|0|0|1|0|0|0|0|0|0|0|0|0|0|Limmatstrasse 27|8005 Zürich|53.0|8002 Zürich|47.36430358886719|8.535305976867676|toedistrasse 1a 8002 zuerich 261 zuerich ch zh
14|2.5 Zimmer, 51m², CHF 2’200.– |2200|Zürichbergstrasse 59, 8044 Zürich|Rustikale und gemütliche Wohnung am Zürichberg|https://www.immoscout24.ch/de/immobilien/mieten/plz-8000-zuerich?pn=14/mieten/4000972736|2.5 Zimmer|51m²|CHF 2’200.– |0|0|0|0|1|0|0|0|0|0|0|0|0|0|0|Zürichbergstrasse 59|8044 Zürich|51.0|8002 Zürich|47.366092681884766|8.525068283081055|herterbruecke 1a 8002 zuerich 261 zuerich ch zh
14|2 Zimmer, 45m², CHF 1’631.– |1631|Malojaweg 3, 8048 Zürich|Wohnkomfort für Geniesser|https://www.immoscout24.ch/de/immobilien/mieten/plz-8000-zuerich?pn=14/mieten/4000960520|2 Zimmer|45m²|CHF 1’631.– |0|0|0|1|0|0|0|0|0|0|0|0|0|0|0|Malojaweg 3|8048 Zürich|45.0|8002 Zürich|47.3667106628418|8.53267765045166|freigutstrasse 1a 8002 zuerich 261 zuerich ch zh
14|3 Zimmer, 77m², CHF 3’390.– |3390|Zeltweg 51, 8032 Zürich|Wunderschöne Altbauwohnung in mitten Zürich|https://www.immoscout24.ch/de/immobilien/mieten/plz-8000-zuerich?pn=14/mieten/4000949307|3 Zimmer|77m²|CHF 3’390.– |0|0|0|0|0|0|1|0|0|0|0|0|0|0|0|Zeltweg 51|8032 Zürich|77.0|8002 Zürich|47.363426208496094|8.534769058227539|general-wille-strasse 1 8002 zuerich 261 zuerich ch zh
14|3 Zimmer, 66m², CHF 1’810.– |1810|Luegislandstr. 56, 8051 Zürich|Wohnen mit toller Aussicht in Zürich|https://www.immoscout24.ch/de/immobilien/mieten/plz-8000-zuerich?pn=14/mieten/4000948200|3 Zimmer|66m²|CHF 1’810.– |0|0|0|0|0|0|1|0|0|0|0|0|0|0|0|Luegislandstr. 56|8051 Zürich|66.0|8002 Zürich|47.36562728881836|8.538392066955566|claridenstrasse 1 8002 zuerich 261 zuerich ch zh
14|3.5 Zimmer, 113m², CHF 3’261.– |3261|Max Bill Platz 9, 8050 Zürich|Moderne Wohnung mit besonderem Flair|https://www.immoscout24.ch/de/immobilien/mieten/plz-8000-zuerich?pn=14/mieten/4000948193|3.5 Zimmer|113m²|CHF 3’261.– |0|0|0|0|0|0|0|1|0|0|0|0|0|0|0|Max Bill Platz 9|8050 Zürich|113.0|8002 Zürich|47.36622619628906|8.537848472595215|gotthardstrasse 1 8002 zuerich 261 zuerich ch zh
15|2.5 Zimmer, 45m², CHF 2’450.– |2450|Freilagerstrasse 5-19, 8047 Zürich|Charmante 2.5-Zimmerwohnung an begehrter Lage Urbanes Wohnen mit Stil und Komfort!|https://www.immoscout24.ch/de/immobilien/mieten/plz-8000-zuerich?pn=15/mieten/4000932414|2.5 Zimmer|45m²|CHF 2’450.– |0|0|0|0|1|0|0|0|0|0|0|0|0|0|0|Freilagerstrasse 5-19|8047 Zürich|45.0|8002 Zürich|47.365867614746094|8.531871795654297|seestrasse 2 8002 zuerich 261 zuerich ch zh
15|2.5 Zimmer, 58m², CHF 2’900.– |2900|Badenerstrasse 250, 8004 Zürich|When living becomes a pleasure - Privileged location - Kreis 4|https://www.immoscout24.ch/de/immobilien/mieten/plz-8000-zuerich?pn=15/mieten/4000930290|2.5 Zimmer|58m²|CHF 2’900.– |0|0|0|0|1|0|0|0|0|0|0|0|0|0|0|Badenerstrasse 250|8004 Zürich|58.0|8002 Zürich|47.366943359375|8.528063774108887|brandschenkesteig 2 8002 zuerich 261 zuerich ch zh
15|3 Zimmer, 78m², CHF 3’340.– |3340|Mainaustrasse 49, 8008 Zürich|Ihr Zuhause mitten im Seefeld!|https://www.immoscout24.ch/de/immobilien/mieten/plz-8000-zuerich?pn=15/mieten/4000929918|3 Zimmer|78m²|CHF 3’340.– |0|0|0|0|0|0|1|0|0|0|0|0|0|0|0|Mainaustrasse 49|8008 Zürich|78.0|8002 Zürich|47.3573112487793|8.527704238891602|kurfirstensteig 2 8002 zuerich 261 zuerich ch zh
15|1.5 Zimmer, 41m², CHF 2’150.– |2150|Mainaustrasse 49, 8008 Zürich|Gemütliches und zentrales Wohnen|https://www.immoscout24.ch/de/immobilien/mieten/plz-8000-zuerich?pn=15/mieten/4000927998|1.5 Zimmer|41m²|CHF 2’150.– |0|1|0|0|0|0|0|0|0|0|0|0|0|0|0|Mainaustrasse 49|8008 Zürich|41.0|8002 Zürich|47.3656120300293|8.533560752868652|bodmerstrasse 2 8002 zuerich 261 zuerich ch zh
15|1.5 Zimmer, 43m², CHF 1’740.– |1740|Jungholzstrasse 20, 8050 Zürich|Zentrale Lage - idyllisch und ruhig|https://www.immoscout24.ch/de/immobilien/mieten/plz-8000-zuerich?pn=15/mieten/4000926778|1.5 Zimmer|43m²|CHF 1’740.– |0|1|0|0|0|0|0|0|0|0|0|0|0|0|0|Jungholzstrasse 20|8050 Zürich|43.0|8002 Zürich|47.36400604248047|8.535189628601074|genferstrasse 2 8002 zuerich 261 zuerich ch zh
15|2 Zimmer, 53m², CHF 2’090.– |2090|Riedhofstrasse 378, 8049 Zürich|2-Zimmerwohnung inmitten der Rebberge|https://www.immoscout24.ch/de/immobilien/mieten/plz-8000-zuerich?pn=15/mieten/4000913099|2 Zimmer|53m²|CHF 2’090.– |0|0|0|1|0|0|0|0|0|0|0|0|0|0|0|Riedhofstrasse 378|8049 Zürich|53.0|8002 Zürich|47.36056137084961|8.532102584838867|traubenstrasse 2 8002 zuerich 261 zuerich ch zh
15|1 Zimmer, 26m², CHF 1’970.– |1970|Manessestrasse 69, 8003 Zürich|Brandneue 1-Zimmer Studio im Herzen von Zürich!|https://www.immoscout24.ch/de/immobilien/mieten/plz-8000-zuerich?pn=15/mieten/4000908567|1 Zimmer|26m²|CHF 1’970.– |1|0|0|0|0|0|0|0|0|0|0|0|0|0|0|Manessestrasse 69|8003 Zürich|26.0|8002 Zürich|47.36089324951172|8.525444030761719|rieterstrasse 2 8002 zuerich 261 zuerich ch zh
15|1.5 Zimmer, 38m², CHF 1’735.– |1735|Tulpenstrasse 43, 8051 Zürich|Wohnen in Schwamendingen|https://www.immoscout24.ch/de/immobilien/mieten/plz-8000-zuerich?pn=15/mieten/4000900763|1.5 Zimmer|38m²|CHF 1’735.– |0|1|0|0|0|0|0|0|0|0|0|0|0|0|0|Tulpenstrasse 43|8051 Zürich|38.0|8002 Zürich|47.366844177246094|8.533121109008789|freigutstrasse 2 8002 zuerich 261 zuerich ch zh
15|2.5 Zimmer, 76m², CHF 2’700.– |2700|Dangelweg 3, 8038 Zürich|Moderne Wohnung an top Lage|https://www.immoscout24.ch/de/immobilien/mieten/plz-8000-zuerich?pn=15/mieten/4000894579|2.5 Zimmer|76m²|CHF 2’700.– |0|0|0|0|1|0|0|0|0|0|0|0|0|0|0|Dangelweg 3|8038 Zürich|76.0|8002 Zürich|47.362117767333984|8.535065650939941|mythenquai 2 8002 zuerich 261 zuerich ch zh
15|3.5 Zimmer, 87m², CHF 3’180.– |3180|Jungholzstrasse 48, 8050 Zürich|An bester Wohnlage in Zürich-Oerlikon|https://www.immoscout24.ch/de/immobilien/mieten/plz-8000-zuerich?pn=15/mieten/4000894474|3.5 Zimmer|87m²|CHF 3’180.– |0|0|0|0|0|0|0|1|0|0|0|0|0|0|0|Jungholzstrasse 48|8050 Zürich|87.0|8002 Zürich|47.36460876464844|8.534222602844238|spluegenstrasse 2 8002 zuerich 261 zuerich ch zh
15|2.5 Zimmer, 110m², CHF 3’490.– |3490|Brunaustr. 72, 8002 Zürich|Atelier mit vielseitiger Nutzung - Modern, Saniert und Sihlblick|https://www.immoscout24.ch/de/immobilien/mieten/plz-8000-zuerich?pn=15/mieten/4000894393|2.5 Zimmer|110m²|CHF 3’490.– |0|0|0|0|1|0|0|0|0|0|0|0|0|0|0|Brunaustr. 72|8002 Zürich|110.0|8002 Zürich|47.365299224853516|8.53133487701416|bederstrasse 2 8002 zuerich 261 zuerich ch zh
15|2.5 Zimmer, 76m², CHF 2’700.– |2700|Dangelweg 3, 8038 Zürich|Moderne Wohnung an top Lage|https://www.immoscout24.ch/de/immobilien/mieten/plz-8000-zuerich?pn=15/mieten/4000892658|2.5 Zimmer|76m²|CHF 2’700.– |0|0|0|0|1|0|0|0|0|0|0|0|0|0|0|Dangelweg 3|8038 Zürich|76.0|8002 Zürich|47.35255813598633|8.524262428283691|gfellstrasse 2 8002 zuerich 261 zuerich ch zh
15|2.5 Zimmer, 60m², CHF 2’241.– |2241|Schaffhauserstrasse 330, 8050 Zürich|Besichtigen - Einziehen - Wohlfühlen|https://www.immoscout24.ch/de/immobilien/mieten/plz-8000-zuerich?pn=15/mieten/4000872845|2.5 Zimmer|60m²|CHF 2’241.– |0|0|0|0|1|0|0|0|0|0|0|0|0|0|0|Schaffhauserstrasse 330|8050 Zürich|60.0|8002 Zürich|47.358455657958984|8.526678085327148|huegelstrasse 2a 8002 zuerich 261 zuerich ch zh
15|3.5 Zimmer, 88m², CHF 3’405.– |3405|Allmannstrasse 55, 8052 Zürich|Attraktive Attikawohnung - Neubauprojekt «Allmann55»|https://www.immoscout24.ch/de/immobilien/mieten/plz-8000-zuerich?pn=15/mieten/4000871597|3.5 Zimmer|88m²|CHF 3’405.– |0|0|0|0|0|0|0|1|0|0|0|0|0|0|0|Allmannstrasse 55|8052 Zürich|88.0|8002 Zürich|47.361480712890625|8.534687042236328|marsstrasse 2 8002 zuerich 261 zuerich ch zh
15|1.5 Zimmer, 26m², CHF 1’950.– |1950|Konradstrasse 71, 8005 Zürich|Charmante Wohnung im Herzen der Stadt zu vermieten|https://www.immoscout24.ch/de/immobilien/mieten/plz-8000-zuerich?pn=15/mieten/4000866336|1.5 Zimmer|26m²|CHF 1’950.– |0|1|0|0|0|0|0|0|0|0|0|0|0|0|0|Konradstrasse 71|8005 Zürich|26.0|8002 Zürich|47.36518096923828|8.537712097167969|beethovenstrasse 2 8002 zuerich 261 zuerich ch zh
15|3.5 Zimmer, 85m², CHF 3’576.– |3576|Forchstr. 26, 8008 Zürich|Tolle 3.5 Zimmerwohnung an top Lage!|https://www.immoscout24.ch/de/immobilien/mieten/plz-8000-zuerich?pn=15/mieten/4000843912|3.5 Zimmer|85m²|CHF 3’576.– |0|0|0|0|0|0|0|1|0|0|0|0|0|0|0|Forchstr. 26|8008 Zürich|85.0|8002 Zürich|47.363521575927734|8.534818649291992|general-wille-strasse 2 8002 zuerich 261 zuerich ch zh
15|3.5 Zimmer, 86m², CHF 3’126.– |3126|Tramstrasse 2a, 8050 Zürich|moderne Wohnung an zentraler Lage|https://www.immoscout24.ch/de/immobilien/mieten/plz-8000-zuerich?pn=15/mieten/4000840179|3.5 Zimmer|86m²|CHF 3’126.– |0|0|0|0|0|0|0|1|0|0|0|0|0|0|0|Tramstrasse 2a|8050 Zürich|86.0|8002 Zürich|47.3651237487793|8.537248611450195|beethovenstrasse 3 8002 zuerich 261 zuerich ch zh
15|1 Zimmer, 64m², CHF 2’485.– |2485|Birchstrasse 98, 8050 Zürich|Neubauwohnung an attraktiver Lage|https://www.immoscout24.ch/de/immobilien/mieten/plz-8000-zuerich?pn=15/mieten/4000826156|1 Zimmer|64m²|CHF 2’485.– |1|0|0|0|0|0|0|0|0|0|0|0|0|0|0|Birchstrasse 98|8050 Zürich|64.0|8002 Zürich|47.3653564453125|8.533515930175781|bodmerstrasse 3 8002 zuerich 261 zuerich ch zh
15|3.5 Zimmer, 78m², CHF 2’630.– |2630|Regensbergstrasse 30, 8050 Zürich|Modern wohnen im Kreis 11|https://www.immoscout24.ch/de/immobilien/mieten/plz-8000-zuerich?pn=15/mieten/4000823310|3.5 Zimmer|78m²|CHF 2’630.– |0|0|0|0|0|0|0|1|0|0|0|0|0|0|0|Regensbergstrasse 30|8050 Zürich|78.0|8002 Zürich|47.356719970703125|8.52820873260498|kurfirstenstrasse 3 8002 zuerich 261 zuerich ch zh
15|3.5 Zimmer, 113m², CHF 3’300.– |3300|Buckhauserstr. 29, 8048 Zürich|Moderne 3.5-Zimmer-Wohnung inmitten der Stadt zu vermieten|https://www.immoscout24.ch/de/immobilien/mieten/plz-8000-zuerich?pn=15/mieten/4000806795|3.5 Zimmer|113m²|CHF 3’300.– |0|0|0|0|0|0|0|1|0|0|0|0|0|0|0|Buckhauserstr. 29|8048 Zürich|113.0|8002 Zürich|47.365421295166016|8.532084465026855|seestrasse 3 8002 zuerich 261 zuerich ch zh
16|3.5 Zimmer, 74m², CHF 2’688.– |2688|Widmerstrasse 73c, 8038 Zürich|Schöne 3.5 Zimmerwohnung in der Nähe der Stadt!|https://www.immoscout24.ch/de/immobilien/mieten/plz-8000-zuerich?pn=16/mieten/4000794626|3.5 Zimmer|74m²|CHF 2’688.– |0|0|0|0|0|0|0|1|0|0|0|0|0|0|0|Widmerstrasse 73c|8038 Zürich|74.0|8002 Zürich|47.35933303833008|8.530896186828613|gablerstrasse 3 8002 zuerich 261 zuerich ch zh
16|2.5 Zimmer, 84m², CHF 3’831.– |3831|Fritz Fleiner-Weg 11, 8044 Zürich|2.5 Zimmer Wohnung an wunderschöner Lage!|https://www.immoscout24.ch/de/immobilien/mieten/plz-8000-zuerich?pn=16/mieten/4000777666|2.5 Zimmer|84m²|CHF 3’831.– |0|0|0|0|1|0|0|0|0|0|0|0|0|0|0|Fritz Fleiner-Weg 11|8044 Zürich|84.0|8002 Zürich|47.35333251953125|8.526755332946777|effingerstrasse 3 8002 zuerich 261 zuerich ch zh
16|2.5 Zimmer, 104m², CHF 3’243.– |3243|Pfingstweidstrasse 104E, 8005 Zürich|Ihre neue Wohlfühloase!|https://www.immoscout24.ch/de/immobilien/mieten/plz-8000-zuerich?pn=16/mieten/4000768116|2.5 Zimmer|104m²|CHF 3’243.– |0|0|0|0|1|0|0|0|0|0|0|0|0|0|0|Pfingstweidstrasse 104E|8005 Zürich|104.0|8002 Zürich|47.360862731933594|8.528315544128418|katharinenweg 3 8002 zuerich 261 zuerich ch zh
16|3.5 Zimmer, 116m², CHF 4’079.– |4079|Stampfenbachplatz 4, 8006 Zürich|Modernes Bijoux - in unmittelbarer Nähe vom Hauptbahnhof|https://www.immoscout24.ch/de/immobilien/mieten/plz-8000-zuerich?pn=16/mieten/4000751099|3.5 Zimmer|116m²|CHF 4’079.– |0|0|0|0|0|0|0|1|0|0|0|0|0|0|0|Stampfenbachplatz 4|8006 Zürich|116.0|8002 Zürich|47.36497497558594|8.537369728088379|beethovenstrasse 1 8002 zuerich 261 zuerich ch zh
16|3.5 Zimmer, 116m², CHF 4’079.– |4079|Stampfenbachplatz 4, 8006 Zürich|Modernes Bijoux – in unmittelbarer Nähe vom Hauptbahnhof|https://www.immoscout24.ch/de/immobilien/mieten/plz-8000-zuerich?pn=16/mieten/4000750038|3.5 Zimmer|116m²|CHF 4’079.– |0|0|0|0|0|0|0|1|0|0|0|0|0|0|0|Stampfenbachplatz 4|8006 Zürich|116.0|8002 Zürich|47.35676193237305|8.528594970703125|kurfirstenstrasse 1 8002 zuerich 261 zuerich ch zh
16|1.5 Zimmer, CHF 1’950.– |1950|Renggerstrasse 19, 8038 Zürich|Zentral gelegene, ruhige Wohnung mit Sitzplatz|https://www.immoscout24.ch/de/immobilien/mieten/plz-8000-zuerich?pn=16/mieten/4000743331|1.5 Zimmer||CHF 1’950.– |0|1|0|0|0|0|0|0|0|0|0|0|0|0|0|Renggerstrasse 19|8038 Zürich||8002 Zürich|47.364410400390625|8.53575611114502|toedistrasse 1 8002 zuerich 261 zuerich ch zh
16|3.5 Zimmer, 71m², CHF 2’610.– |2610|Widmerstrasse 73b, 8038 Zürich|Schöne 3.5 Zimmerwohnung im FiveCubes in Wollishofen!|https://www.immoscout24.ch/de/immobilien/mieten/plz-8000-zuerich?pn=16/mieten/4000740085|3.5 Zimmer|71m²|CHF 2’610.– |0|0|0|0|0|0|0|1|0|0|0|0|0|0|0|Widmerstrasse 73b|8038 Zürich|71.0|8002 Zürich|47.36357879638672|8.534124374389648|jenatschstrasse 1 8002 zuerich 261 zuerich ch zh
16|4.5 Zimmer, 169m², CHF 9’400.– |9400|Zollikerstrasse 177f, 8008 Zürich|Exklusive Einfamilienhäuser im Villengarten - Grün.Modern.Hochwertig.|https://www.immoscout24.ch/de/immobilien/mieten/plz-8000-zuerich?pn=16/mieten/4000623907|4.5 Zimmer|169m²|CHF 9’400.– |0|0|0|0|0|0|0|0|0|1|0|0|0|0|0|Zollikerstrasse 177f|8008 Zürich|169.0|8002 Zürich|47.36451721191406|8.532172203063965|tessinerplatz 1 8002 zuerich 261 zuerich ch zh
16|2 Zimmer, 122m², CHF 3’190.– |3190|Max Bill Platz 5, 8050 Zürich|Modernes Wohnen im Zentrum von Oerlikon|https://www.immoscout24.ch/de/immobilien/mieten/plz-8000-zuerich?pn=16/mieten/4000606778|2 Zimmer|122m²|CHF 3’190.– |0|0|0|1|0|0|0|0|0|0|0|0|0|0|0|Max Bill Platz 5|8050 Zürich|122.0|8002 Zürich|47.361061096191406|8.532576560974121|schulhausstrasse 1 8002 zuerich 261 zuerich ch zh
16|3 Zimmer, CHF 2’399.– |2399|Konradstrasse 77, 8005 Zürich|Ihr neues Wohnreich in Zürich|https://www.immoscout24.ch/de/immobilien/mieten/plz-8000-zuerich?pn=16/mieten/4000568831|3 Zimmer||CHF 2’399.– |0|0|0|0|0|0|1|0|0|0|0|0|0|0|0|Konradstrasse 77|8005 Zürich||8002 Zürich|47.362300872802734|8.530669212341309|bluntschlisteig 1 8002 zuerich 261 zuerich ch zh
16|3 Zimmer, 90m², CHF 2’095.– |2095|Hungerbergstrasse 5, 8046 Zürich|Ruhig, hell, preiswert|https://www.immoscout24.ch/de/immobilien/mieten/plz-8000-zuerich?pn=16/mieten/4000522304|3 Zimmer|90m²|CHF 2’095.– |0|0|0|0|0|0|1|0|0|0|0|0|0|0|0|Hungerbergstrasse 5|8046 Zürich|90.0|8002 Zürich|47.3618278503418|8.526631355285645|waffenplatzstrasse 1 8002 zuerich 261 zuerich ch zh
16|2.5 Zimmer, 72m², CHF 3’562.– |3562|Jenatschstrasse 3, 8002 Zürich|Sanierte Stadtwohnung nähe Enge|https://www.immoscout24.ch/de/immobilien/mieten/plz-8000-zuerich?pn=16/mieten/4000454281|2.5 Zimmer|72m²|CHF 3’562.– |0|0|0|0|1|0|0|0|0|0|0|0|0|0|0|Jenatschstrasse 3|8002 Zürich|72.0|8002 Zürich|47.360355377197266|8.532285690307617|traubenstrasse 1 8002 zuerich 261 zuerich ch zh
16|2.5 Zimmer, 94m², CHF 4’805.– |4805|Mühlebachstr. 28, 8008 Zürich|grosszügige Wohnung im Seefeld und direkter Lage am Zürich Stadelhofen|https://www.immoscout24.ch/de/immobilien/mieten/plz-8000-zuerich?pn=16/mieten/4000453004|2.5 Zimmer|94m²|CHF 4’805.– |0|0|0|0|1|0|0|0|0|0|0|0|0|0|0|Mühlebachstr. 28|8008 Zürich|94.0|8002 Zürich|47.36404800415039|8.528010368347168|steinentischstrasse 1 8002 zuerich 261 zuerich ch zh
16|2 Zimmer, 51m², CHF 1’650.– |1650|Luchswiesenstrasse 132, 8051 Zürich|Schöne, helle 2-Zimmer-Wohnung mit Balkon|https://www.immoscout24.ch/de/immobilien/mieten/plz-8000-zuerich?pn=16/mieten/4000407061|2 Zimmer|51m²|CHF 1’650.– |0|0|0|1|0|0|0|0|0|0|0|0|0|0|0|Luchswiesenstrasse 132|8051 Zürich|51.0|8002 Zürich|47.356197357177734|8.526772499084473|rieterplatz 1 8002 zuerich 261 zuerich ch zh
16|23m², CHF 2’585.– |2585|Albertstrasse 7, 8005 Zürich|Studio Apartment Junior Balcony|https://www.immoscout24.ch/de/immobilien/mieten/plz-8000-zuerich?pn=16/mieten/3002968343|1 Zimmer|23m²|CHF 2’585.– |1|0|0|0|0|0|0|0|0|0|0|0|0|0|0|Albertstrasse 7|8005 Zürich|23.0|8002 Zürich|47.36933517456055|8.534676551818848|schanzeneggstrasse 1 8002 zuerich 261 zuerich ch zh
16|21m², CHF 2’377.– |2377|Rotachstrasse 33, 8003 Zurich|Studio Apartment Junior|https://www.immoscout24.ch/de/immobilien/mieten/plz-8000-zuerich?pn=16/mieten/3000390344|1 Zimmer|21m²|CHF 2’377.– |1|0|0|0|0|0|0|0|0|0|0|0|0|0|0|Rotachstrasse 33|8003 Zurich|21.0|8002 Zürich|47.365482330322266|8.531282424926758|ulmbergstrasse 1 8002 zuerich 261 zuerich ch zh
16|2 Zimmer, 41m², CHF 3’934.– |3934|Wolframplatz 1, 8045 Zurich|2 Bedroom Apartment Junior|https://www.immoscout24.ch/de/immobilien/mieten/plz-8000-zuerich?pn=16/mieten/3000389842|2 Zimmer|41m²|CHF 3’934.– |0|0|0|1|0|0|0|0|0|0|0|0|0|0|0|Wolframplatz 1|8045 Zurich|41.0|8002 Zürich|47.365013122558594|8.530757904052734|gutenbergstrasse 1 8002 zuerich 261 zuerich ch zh
16|2.5 Zimmer, 63m², CHF 1’590.– |1590|Dennlerstr. 16, 8048 Zürich|Helle 2.5-Zimmerwohnung in einem familiären Quartier in Altstetten|https://www.immoscout24.ch/de/immobilien/mieten/plz-8000-zuerich?pn=16/mieten/4001022624|2.5 Zimmer|63m²|CHF 1’590.– |0|0|0|0|1|0|0|0|0|0|0|0|0|0|0|Dennlerstr. 16|8048 Zürich|63.0|8002 Zürich|47.363224029541016|8.526062965393066|klopstockstrasse 1 8002 zuerich 261 zuerich ch zh
16|2.5 Zimmer, 84m², CHF 2’112.– |2112|Margrit-Rainer-Strasse 16, 8050 Zürich|Attraktive Wohnung in Zürich-Oerlikon|https://www.immoscout24.ch/de/immobilien/mieten/plz-8000-zuerich?pn=16/mieten/4001021743|2.5 Zimmer|84m²|CHF 2’112.– |0|0|0|0|1|0|0|0|0|0|0|0|0|0|0|Margrit-Rainer-Strasse 16|8050 Zürich|84.0|8002 Zürich|47.36601638793945|8.524934768676758|herterbruecke 1 8002 zuerich 261 zuerich ch zh
16|2.5 Zimmer, 84m², CHF 2’112.– |2112|Margrit-Rainer-Strasse 16, 8050 Zürich|Attraktive Wohnung in Zürich-Oerlikon|https://www.immoscout24.ch/de/immobilien/mieten/plz-8000-zuerich?pn=16/mieten/4001021336|2.5 Zimmer|84m²|CHF 2’112.– |0|0|0|0|1|0|0|0|0|0|0|0|0|0|0|Margrit-Rainer-Strasse 16|8050 Zürich|84.0|8002 Zürich|47.364768981933594|8.531177520751953|bederstrasse 1 8002 zuerich 261 zuerich ch zh
17|3 Zimmer, 60m², CHF 2’690.– |2690|Lessingstrasse 49, 8002 Zürich|Exklusives Wohnerlebnis, Natur & Stadtnah|https://www.immoscout24.ch/de/immobilien/mieten/plz-8000-zuerich?pn=17/mieten/4001021032|3 Zimmer|60m²|CHF 2’690.– |0|0|0|0|0|0|1|0|0|0|0|0|0|0|0|Lessingstrasse 49|8002 Zürich|60.0|8002 Zürich|47.363861083984375|8.534781455993652|genferstrasse 1 8002 zuerich 261 zuerich ch zh
17|4.5 Zimmer, CHF 2’960.– |2960|Weidmannstrasse 11, 8046 Zürich|Grosszügige 4.5 Zimmerwohnung in Zürich-Affoltern|https://www.immoscout24.ch/de/immobilien/mieten/plz-8000-zuerich?pn=17/mieten/4001020032|4.5 Zimmer||CHF 2’960.– |0|0|0|0|0|0|0|0|0|1|0|0|0|0|0|Weidmannstrasse 11|8046 Zürich||8002 Zürich|47.364070892333984|8.52786922454834|steinentischstrasse 1a 8002 zuerich 261 zuerich ch zh
17|3.5 Zimmer, 70m², CHF 1’900.– |1900|Georg-Kempf-Str. 9, 8046 Zürich|Die ideale Wohnung für junge Paare|https://www.immoscout24.ch/de/immobilien/mieten/plz-8000-zuerich?pn=17/mieten/4001019662|3.5 Zimmer|70m²|CHF 1’900.– |0|0|0|0|0|0|0|1|0|0|0|0|0|0|0|Georg-Kempf-Str. 9|8046 Zürich|70.0|8002 Zürich|47.363216400146484|8.525934219360352|klopstockstrasse 1a 8002 zuerich 261 zuerich ch zh
17|4 Zimmer, 78m², CHF 2’145.– |2145|Erlenstrasse 21, 8048 Zürich|Charmante 4 Zimmer-Wohnung in Altstetten|https://www.immoscout24.ch/de/immobilien/mieten/plz-8000-zuerich?pn=17/mieten/4001018513|4 Zimmer|78m²|CHF 2’145.– |0|0|0|0|0|0|0|0|1|0|0|0|0|0|0|Erlenstrasse 21|8048 Zürich|78.0|8002 Zürich|47.3622932434082|8.535627365112305|mythenquai 1 8002 zuerich 261 zuerich ch zh
17|1 Zimmer, CHF 897.– |897|Kalkbreitestrasse 56, 8003 Zürich|Möbliertes Einzelzimmer mitten in Zürich Wiedikon|https://www.immoscout24.ch/de/immobilien/mieten/plz-8000-zuerich?pn=17/mieten/4001018250|1 Zimmer||CHF 897.– |1|0|0|0|0|0|0|0|0|0|0|0|0|0|0|Kalkbreitestrasse 56|8003 Zürich||8002 Zürich|47.36430358886719|8.535305976867676|toedistrasse 1a 8002 zuerich 261 zuerich ch zh
17|1 Zimmer, CHF 897.– |897|Kalkbreitestrasse 56, 8003 Zürich|Möbliertes Einzelzimmer mitten in Zürich Wiedikon|https://www.immoscout24.ch/de/immobilien/mieten/plz-8000-zuerich?pn=17/mieten/4001018060|1 Zimmer||CHF 897.– |1|0|0|0|0|0|0|0|0|0|0|0|0|0|0|Kalkbreitestrasse 56|8003 Zürich||8002 Zürich|47.366092681884766|8.525068283081055|herterbruecke 1a 8002 zuerich 261 zuerich ch zh
17|1 Zimmer, CHF 880.– |880|Ankerstrasse 110, 8004 Zürich|Sanierte Zimmer beim Helvetiaplatz zu vermieten!|https://www.immoscout24.ch/de/immobilien/mieten/plz-8000-zuerich?pn=17/mieten/4001015284|1 Zimmer||CHF 880.– |1|0|0|0|0|0|0|0|0|0|0|0|0|0|0|Ankerstrasse 110|8004 Zürich||8002 Zürich|47.3667106628418|8.53267765045166|freigutstrasse 1a 8002 zuerich 261 zuerich ch zh
17|2.5 Zimmer, 69m², CHF 3’616.– |3616|Kreuzstr. 40, 8008 Zürich|Wohnen im pulsierenden Seefeld|https://www.immoscout24.ch/de/immobilien/mieten/plz-8000-zuerich?pn=17/mieten/4001014020|2.5 Zimmer|69m²|CHF 3’616.– |0|0|0|0|1|0|0|0|0|0|0|0|0|0|0|Kreuzstr. 40|8008 Zürich|69.0|8002 Zürich|47.363426208496094|8.534769058227539|general-wille-strasse 1 8002 zuerich 261 zuerich ch zh
17|2.5 Zimmer, 72m², CHF 1’700.– |1700|Badenerstrasse 807, 8048 Zürich|Ruhiger Gartensitzplatz im urbanen Altstetten|https://www.immoscout24.ch/de/immobilien/mieten/plz-8000-zuerich?pn=17/mieten/4001013662|2.5 Zimmer|72m²|CHF 1’700.– |0|0|0|0|1|0|0|0|0|0|0|0|0|0|0|Badenerstrasse 807|8048 Zürich|72.0|8002 Zürich|47.36562728881836|8.538392066955566|claridenstrasse 1 8002 zuerich 261 zuerich ch zh
17|3.5 Zimmer, 90m², CHF 4’130.– |4130|Im Glockenacker 13, 8053 Zürich|Moderne 3.5 Zimmer-Attikawohnung im Kreis 7|https://www.immoscout24.ch/de/immobilien/mieten/plz-8000-zuerich?pn=17/mieten/4001011722|3.5 Zimmer|90m²|CHF 4’130.– |0|0|0|0|0|0|0|1|0|0|0|0|0|0|0|Im Glockenacker 13|8053 Zürich|90.0|8002 Zürich|47.36622619628906|8.537848472595215|gotthardstrasse 1 8002 zuerich 261 zuerich ch zh
17|1.5 Zimmer, CHF 1’950.– |1950|Sihlfeldstrasse 83, 8004 Zürich|Mittendrin im Lochergut|https://www.immoscout24.ch/de/immobilien/mieten/plz-8000-zuerich?pn=17/mieten/4001010015|1.5 Zimmer||CHF 1’950.– |0|1|0|0|0|0|0|0|0|0|0|0|0|0|0|Sihlfeldstrasse 83|8004 Zürich||8002 Zürich|47.365867614746094|8.531871795654297|seestrasse 2 8002 zuerich 261 zuerich ch zh
17|3.5 Zimmer, 109m², CHF 3’180.– |3180|Hagenholzstrasse 70, 8050 Zürich|Ruhiges wohnen mitten im Geschehen|https://www.immoscout24.ch/de/immobilien/mieten/plz-8000-zuerich?pn=17/mieten/4001003650|3.5 Zimmer|109m²|CHF 3’180.– |0|0|0|0|0|0|0|1|0|0|0|0|0|0|0|Hagenholzstrasse 70|8050 Zürich|109.0|8002 Zürich|47.366943359375|8.528063774108887|brandschenkesteig 2 8002 zuerich 261 zuerich ch zh
17|3.5 Zimmer, 107m², CHF 3’490.– |3490|8050 Zürich|Moderne 3.5-Zimmer-Maisonette-Wohnung in Zürich|https://www.immoscout24.ch/de/immobilien/mieten/plz-8000-zuerich?pn=17/mieten/4001003174|3.5 Zimmer|107m²|CHF 3’490.– |0|0|0|0|0|0|0|1|0|0|0|0|0|0|0||8050 Zürich|107.0|8002 Zürich|47.3573112487793|8.527704238891602|kurfirstensteig 2 8002 zuerich 261 zuerich ch zh
