price,address,rooms,size,latitude,longitude,distance_hospital,lr_day,lr_night,distance_ov,wbauj,modern,erstvermietung,zentral,see,neu,stöckig,traum,bijou,neubau,balkon,charmant,erstbezug,1 Zimmer,1.5 Zimmer,2 Zimmer,2.5 Zimmer,3 Zimmer,3.5 Zimmer,4 Zimmer,4.5 Zimmer,5 Zimmer,5.5 Zimmer,6 Zimmer,6.5 Zimmer,7 Zimmer,7.5 Zimmer,y0,y1999,y2000,y2001,y2003,y2004,y2005,y2006,y2008,y2009,y2010,y2011,y2012,y2013,y2014,y2015,y2016,y2017,y2018,y2019,y2020,y2021,y2022,y2023,y2024
4032,"Käferholzstrasse 42, 8057 Zürich",4.5,114,47.401912689208984,8.531828880310059,0.8881023842628276,32.2,25.3,0.20672444264774292,2020,1,0,0,0,0,0,0,0,0,0,0,0,0,0,0,0,0,0,0,1,0,0,0,0,0,0,0,0,0,0,0,0,0,0,0,0,0,0,0,0,0,0,0,0,0,0,1,0,0,0,0
3220,"Grabenwies 2, 8057 Zürich",2.5,90,47.40153503417969,8.536803245544434,1.485067879244478,50.3,42.8,0.13144340359480816,1999,0,0,0,0,1,0,1,0,0,0,0,0,0,0,0,1,0,0,0,0,0,0,0,0,0,0,0,1,0,0,0,0,0,0,0,0,0,0,0,0,0,0,0,0,0,0,0,0,0,0,0
1720,"Herrligweg 9, 8048 Zürich",1.5,24,47.389892578125,8.484477996826172,2.688730362092503,42.7,36.2,0.152095175437884,2021,0,0,1,0,0,0,0,0,0,0,0,0,0,1,0,0,0,0,0,0,0,0,0,0,0,0,0,0,0,0,0,0,0,0,0,0,0,0,0,0,0,0,0,0,0,0,0,1,0,0,0
2600,"Hagenholzstrasse 59, 8050 Zürich",2.5,54,47.41465759277344,8.555407524108887,0.647988998858256,61.6,50.3,0.027031983216772113,2023,0,0,0,0,0,0,0,0,0,0,0,0,0,0,0,1,0,0,0,0,0,0,0,0,0,0,0,0,0,0,0,0,0,0,0,0,0,0,0,0,0,0,0,0,0,0,0,0,0,1,0
4090,"Widmerstrasse 87, 8038 Zürich",4.5,105,47.334983825683594,8.53151798248291,1.9512909743999907,48.1,36.2,0.12723209550381692,1999,0,1,0,0,0,0,0,0,0,0,0,0,0,0,0,0,0,0,0,1,0,0,0,0,0,0,0,1,0,0,0,0,0,0,0,0,0,0,0,0,0,0,0,0,0,0,0,0,0,0,0
1921,"Herrligweg 9, 8048 Zürich",1.5,26,47.389892578125,8.484477996826172,2.688730362092503,42.7,36.2,0.152095175437884,2021,0,0,0,0,0,0,0,0,0,0,0,0,0,1,0,0,0,0,0,0,0,0,0,0,0,0,0,0,0,0,0,0,0,0,0,0,0,0,0,0,0,0,0,0,0,0,0,1,0,0,0
4835,"Albulastrasse 60, 8048 Zürich",3.5,180,47.38902282714844,8.492106437683105,2.429297774649999,48.1,40.7,0.1505017153384288,2010,0,0,0,0,0,0,0,0,0,0,0,0,0,0,0,0,0,1,0,0,0,0,0,0,0,0,0,0,0,0,0,0,0,0,0,0,1,0,0,0,0,0,0,0,0,0,0,0,0,0,0
1380,"Albulastrasse 50, 8048 Zürich",1.0,18,47.38846206665039,8.493203163146973,2.3534906323507276,44.4,37.7,0.13081590385620526,2010,0,0,0,0,0,0,0,0,0,0,0,0,1,0,0,0,0,0,0,0,0,0,0,0,0,0,0,0,0,0,0,0,0,0,0,0,1,0,0,0,0,0,0,0,0,0,0,0,0,0,0
4227,"Käferholzstrasse 42, 8057 Zürich",4.5,117,47.401912689208984,8.531828880310059,0.8881023842628276,32.2,25.3,0.20672444264774292,2020,1,0,0,0,0,0,0,0,0,0,0,0,0,0,0,0,0,0,0,1,0,0,0,0,0,0,0,0,0,0,0,0,0,0,0,0,0,0,0,0,0,0,0,0,0,0,1,0,0,0,0
4262,"Käferholzstrasse 58, 8057 Zürich",4.5,117,47.402618408203125,8.531781196594238,0.9192533694572566,33.3,26.6,0.14038256666116683,2020,1,0,0,0,0,0,0,0,0,0,0,0,0,0,0,0,0,0,0,1,0,0,0,0,0,0,0,0,0,0,0,0,0,0,0,0,0,0,0,0,0,0,0,0,0,0,1,0,0,0,0
3710,"Kalkbreitestrasse 41, 8003 Zürich",2.5,60,47.37330627441406,8.519449234008789,1.1139892973382755,63.4,56.9,0.18813173508646916,1999,1,0,0,0,0,0,0,0,0,0,0,0,0,0,0,1,0,0,0,0,0,0,0,0,0,0,0,1,0,0,0,0,0,0,0,0,0,0,0,0,0,0,0,0,0,0,0,0,0,0,0
3240,"Hohlstrasse 207, 8004 Zürich",2.5,77,47.38150405883789,8.516743659973145,1.0855418166458288,70.2,60.5,0.1907555034306113,1999,1,0,0,0,0,0,0,0,0,0,0,0,0,0,0,1,0,0,0,0,0,0,0,0,0,0,0,1,0,0,0,0,0,0,0,0,0,0,0,0,0,0,0,0,0,0,0,0,0,0,0
4720,"Allenmoosstrasse 60, 8057 Zürich",5.5,113,47.40371322631836,8.540075302124023,1.1523427767598782,27.5,20.8,0.29773630488049685,1999,0,1,0,0,0,0,0,0,0,0,0,0,0,0,0,0,0,0,0,0,0,1,0,0,0,0,0,1,0,0,0,0,0,0,0,0,0,0,0,0,0,0,0,0,0,0,0,0,0,0,0
3850,"Widmerstrasse 85, 8038 Zürich",3.5,86,47.334754943847656,8.531593322753906,1.9767132316890466,42.0,32.0,0.12524095517329062,1999,0,1,0,0,0,0,0,0,0,0,0,0,0,0,0,0,0,1,0,0,0,0,0,0,0,0,0,1,0,0,0,0,0,0,0,0,0,0,0,0,0,0,0,0,0,0,0,0,0,0,0
2730,"Zurlindenstrasse 111, 8003 Zürich",1.5,45,47.37103271484375,8.518729209899902,1.3259094786372712,41.0,33.4,0.1037260679034982,2014,0,0,0,0,0,0,0,0,0,0,0,0,0,1,0,0,0,0,0,0,0,0,0,0,0,0,0,0,0,0,0,0,0,0,0,0,0,0,0,0,1,0,0,0,0,0,0,0,0,0,0
4390,"Ottikerstrasse 11, 8006 Zürich",4.0,125,47.385704040527344,8.542648315429688,0.7820953826720567,53.8,47.1,0.05977136475142655,1999,0,0,0,0,0,0,0,1,0,0,0,0,0,0,0,0,0,0,1,0,0,0,0,0,0,0,0,1,0,0,0,0,0,0,0,0,0,0,0,0,0,0,0,0,0,0,0,0,0,0,0
1755,"Viktoriastrasse 61, 8050 Zürich",2.0,55,47.406105041503906,8.550956726074219,0.8050584984917283,40.1,32.4,0.19341902685094375,1999,0,0,1,0,0,0,0,0,0,0,0,0,0,0,1,0,0,0,0,0,0,0,0,0,0,0,0,1,0,0,0,0,0,0,0,0,0,0,0,0,0,0,0,0,0,0,0,0,0,0,0
5695,"Scheideggstrasse 70, 8002 Zürich",7.5,205,47.353271484375,8.528915405273438,0.2241932570483216,48.5,43.5,0.26209601979782765,1999,0,0,0,0,0,0,0,0,0,0,0,0,0,0,0,0,0,0,0,0,0,0,0,0,0,1,0,1,0,0,0,0,0,0,0,0,0,0,0,0,0,0,0,0,0,0,0,0,0,0,0
6117,"General Wille-Strasse 8, 8002 Zürich",5.5,127,47.36353302001953,8.533804893493652,1.2336672641457023,61.5,55.8,0.09452682284211494,0,0,0,0,1,1,0,0,0,0,0,0,0,0,0,0,0,0,0,0,0,0,1,0,0,0,0,1,0,0,0,0,0,0,0,0,0,0,0,0,0,0,0,0,0,0,0,0,0,0,0,0
2175,"Dachslernstrasse 184, 8048 Zürich",3.5,73,47.39279556274414,8.470620155334473,3.5248459576304345,42.3,36.2,0.0301942172095992,1999,0,0,1,0,0,0,0,0,0,0,0,0,0,0,0,0,0,1,0,0,0,0,0,0,0,0,0,1,0,0,0,0,0,0,0,0,0,0,0,0,0,0,0,0,0,0,0,0,0,0,0
2753,"Mutschellenstrasse 47, 8038 Zürich",2.0,57,47.35172653198242,8.527535438537598,0.3250980738959651,41.9,36.5,0.09182233010346036,1999,0,0,0,0,0,0,0,0,0,0,0,0,0,0,1,0,0,0,0,0,0,0,0,0,0,0,0,1,0,0,0,0,0,0,0,0,0,0,0,0,0,0,0,0,0,0,0,0,0,0,0
5850,"Limmatstrasse 260, 8005 Zürich",3.5,118,47.38913345336914,8.52584171295166,1.0993787188058706,51.1,45.4,0.07908813583749635,2013,0,0,0,0,0,0,0,0,0,0,0,0,0,0,0,0,0,1,0,0,0,0,0,0,0,0,0,0,0,0,0,0,0,0,0,0,0,0,0,1,0,0,0,0,0,0,0,0,0,0,0
2189,"Hungerbergstrasse 5, 8046 Zürich",3.0,60,47.420188903808594,8.501709938049316,2.7930515664287237,39.3,32.1,0.10175684528479978,2011,0,0,0,0,0,0,0,0,0,0,0,0,0,0,0,0,1,0,0,0,0,0,0,0,0,0,0,0,0,0,0,0,0,0,0,0,0,1,0,0,0,0,0,0,0,0,0,0,0,0,0
2105,"Winterthurerstrasse 85, 8006 Zürich",2.0,57,47.39104080200195,8.545096397399902,1.4684099758584424,60.3,50.4,0.04987052791115891,1999,0,0,0,0,0,0,0,0,0,0,0,0,0,0,1,0,0,0,0,0,0,0,0,0,0,0,0,1,0,0,0,0,0,0,0,0,0,0,0,0,0,0,0,0,0,0,0,0,0,0,0
2570,"Dennlerstrasse 22, 8047 Zürich",3.5,87,47.38163757324219,8.497901916503906,1.5645318874263723,49.4,38.7,0.20859249021571166,1999,0,0,0,0,0,0,0,0,0,0,0,0,0,0,0,0,0,1,0,0,0,0,0,0,0,0,0,1,0,0,0,0,0,0,0,0,0,0,0,0,0,0,0,0,0,0,0,0,0,0,0
3907,"Schaffhauserstrasse 30, 8006 Zürich",4.0,88,47.3901252746582,8.539281845092773,1.015409345464871,38.9,31.6,0.17762152942460732,1999,0,0,0,0,0,0,0,0,0,0,0,0,0,0,0,0,0,0,1,0,0,0,0,0,0,0,0,1,0,0,0,0,0,0,0,0,0,0,0,0,0,0,0,0,0,0,0,0,0,0,0
3940,"Eugen-Huber-Str. 113, 8048 Zürich",3.5,87,47.387142181396484,8.475541114807129,2.795498169219903,28.8,17.8,0.15252412055893902,0,1,0,0,0,0,0,0,0,0,0,0,0,0,0,0,0,0,1,0,0,0,0,0,0,0,0,1,0,0,0,0,0,0,0,0,0,0,0,0,0,0,0,0,0,0,0,0,0,0,0,0
2340,"Wiesliacher 14, 8053 Zürich",3.0,77,47.35456466674805,8.59931755065918,1.7621205851322979,41.0,29.4,0.06757014965011787,1999,0,0,0,0,0,0,0,0,0,0,0,0,0,0,0,0,1,0,0,0,0,0,0,0,0,0,0,1,0,0,0,0,0,0,0,0,0,0,0,0,0,0,0,0,0,0,0,0,0,0,0
2480,"Birmensdorferstrasse 101, 8003 Zürich",2.0,48,47.37058639526367,8.522536277770996,1.1884392898327822,61.8,56.1,0.14122725059900001,1999,0,0,0,0,0,0,0,0,0,0,0,0,0,0,1,0,0,0,0,0,0,0,0,0,0,0,0,1,0,0,0,0,0,0,0,0,0,0,0,0,0,0,0,0,0,0,0,0,0,0,0
2600,"Carl-Spitteler-Strasse 21, 8053 Zürich",3.5,83,47.357452392578125,8.588934898376465,1.1628644312769243,49.0,36.5,0.15788316770756633,1999,0,0,0,0,0,0,0,0,0,0,0,0,0,0,0,0,0,1,0,0,0,0,0,0,0,0,0,1,0,0,0,0,0,0,0,0,0,0,0,0,0,0,0,0,0,0,0,0,0,0,0
4029,"Baslerstrasse 77, 8048 Zürich",4.0,101,47.386112213134766,8.496638298034668,2.065279445010333,52.3,43.9,0.031044608159960452,2022,0,0,0,0,0,0,0,0,0,0,0,0,0,0,0,0,0,0,1,0,0,0,0,0,0,0,0,0,0,0,0,0,0,0,0,0,0,0,0,0,0,0,0,0,0,0,0,0,1,0,0
2485,"Zeltweg 92, 8032 Zürich",2.0,46,47.36533737182617,8.5538969039917,0.7684870044225348,42.3,35.9,0.031452581573744365,2024,0,0,0,0,0,0,0,0,0,0,0,0,0,0,1,0,0,0,0,0,0,0,0,0,0,0,0,0,0,0,0,0,0,0,0,0,0,0,0,0,0,0,0,0,0,0,0,0,0,0,1
3050,"Kurvenstrasse 1, 8006 Zürich",2.5,60,47.38399124145508,8.54233455657959,0.6694161605849913,36.7,29.4,0.13343992226277285,1999,0,0,0,0,0,0,0,0,0,0,1,0,0,0,0,1,0,0,0,0,0,0,0,0,0,0,0,1,0,0,0,0,0,0,0,0,0,0,0,0,0,0,0,0,0,0,0,0,0,0,0
3529,"Haldenstrasse 14, 8045 Zürich",3.5,86,47.36336898803711,8.518133163452148,1.5792356378444856,40.2,32.0,0.04707965805159379,1999,1,0,0,0,1,0,0,0,0,0,0,0,0,0,0,0,0,1,0,0,0,0,0,0,0,0,0,1,0,0,0,0,0,0,0,0,0,0,0,0,0,0,0,0,0,0,0,0,0,0,0
4670,"Kreuzstrasse 78, 8032 Zürich",4.5,90,47.36531448364258,8.553620338439941,0.7792842927393631,42.5,36.1,0.03754269929983272,1999,0,1,0,0,0,0,0,0,0,0,0,0,0,0,0,0,0,0,0,1,0,0,0,0,0,0,0,1,0,0,0,0,0,0,0,0,0,0,0,0,0,0,0,0,0,0,0,0,0,0,0
3930,"Kreuzstrasse 78, 8032 Zürich",3.5,76,47.36531448364258,8.553620338439941,0.7792842927393631,42.5,36.1,0.03754269929983272,1999,0,0,0,0,0,0,0,0,0,0,0,0,0,0,0,0,0,1,0,0,0,0,0,0,0,0,0,1,0,0,0,0,0,0,0,0,0,0,0,0,0,0,0,0,0,0,0,0,0,0,0
2920,"Seefeldstrasse 102, 8008 Zürich",1.5,56,47.35956954956055,8.552647590637207,0.3134569248814513,55.8,45.0,0.10147563972706128,1999,0,0,0,1,0,0,0,0,0,0,0,0,0,1,0,0,0,0,0,0,0,0,0,0,0,0,0,1,0,0,0,0,0,0,0,0,0,0,0,0,0,0,0,0,0,0,0,0,0,0,0
2092,"Zelgwiesenstrasse 23, 8046 Zürich",3.5,70,47.413002014160156,8.527427673339844,1.6612157851559226,38.2,30.1,0.12850104875935553,1999,0,0,0,0,0,0,0,0,0,0,0,0,0,0,0,0,0,1,0,0,0,0,0,0,0,0,0,1,0,0,0,0,0,0,0,0,0,0,0,0,0,0,0,0,0,0,0,0,0,0,0
3150,"Pfirsichstrasse 7, 8006 Zürich",3.0,68,47.38933181762695,8.537666320800781,0.8908195099395708,37.5,31.3,0.15911824465168123,1999,0,0,0,0,0,0,0,1,0,0,0,0,0,0,0,0,1,0,0,0,0,0,0,0,0,0,0,1,0,0,0,0,0,0,0,0,0,0,0,0,0,0,0,0,0,0,0,0,0,0,0
3300,"Bucheggstrasse 21, 8037 Zürich",3.5,75,47.396705627441406,8.528757095336914,0.6231784368386092,66.3,60.5,0.13252006080377052,1999,0,0,0,0,0,0,0,0,0,0,0,0,0,0,0,0,0,1,0,0,0,0,0,0,0,0,0,1,0,0,0,0,0,0,0,0,0,0,0,0,0,0,0,0,0,0,0,0,0,0,0
6490,"Sonneggstrasse 45, 8006 Zürich",3.5,140,47.380638122558594,8.545746803283691,0.5150541572353423,49.6,39.6,0.15476055548989134,1999,0,0,0,0,0,0,1,0,0,0,0,0,0,0,0,0,0,1,0,0,0,0,0,0,0,0,0,1,0,0,0,0,0,0,0,0,0,0,0,0,0,0,0,0,0,0,0,0,0,0,0
5990,"Wartauweg 19, 8049 Zürich",4.5,109,47.40304183959961,8.49215316772461,2.1349610207013243,53.6,43.9,0.04134169284429025,1999,0,1,0,0,0,0,0,0,0,0,0,0,0,0,0,0,0,0,0,1,0,0,0,0,0,0,0,1,0,0,0,0,0,0,0,0,0,0,0,0,0,0,0,0,0,0,0,0,0,0,0
4990,"Wartauweg 19, 8049 Zürich",3.5,88,47.40304183959961,8.49215316772461,2.1349610207013243,53.6,43.9,0.04134169284429025,1999,0,1,0,0,0,0,0,0,0,0,0,0,0,0,0,0,0,1,0,0,0,0,0,0,0,0,0,1,0,0,0,0,0,0,0,0,0,0,0,0,0,0,0,0,0,0,0,0,0,0,0
2520,"Badenerstrasse 843, 8048 Zürich",2.5,79,47.39344787597656,8.47266674041748,3.508777501103295,67.5,60.7,0.10106307263082993,2023,0,0,0,0,0,0,0,0,0,0,0,0,0,0,0,1,0,0,0,0,0,0,0,0,0,0,0,0,0,0,0,0,0,0,0,0,0,0,0,0,0,0,0,0,0,0,0,0,0,1,0
3568,"Toblerstrasse 10, 8044 Zürich",3.0,101,47.382076263427734,8.55302906036377,0.4400050516754876,51.8,40.2,0.0829213759575584,1999,0,0,0,0,0,0,0,0,0,0,0,0,0,0,0,0,1,0,0,0,0,0,0,0,0,0,0,1,0,0,0,0,0,0,0,0,0,0,0,0,0,0,0,0,0,0,0,0,0,0,0
3697,"Haldenstrasse 14, 8045 Zürich",3.5,86,47.36336898803711,8.518133163452148,1.5792356378444856,40.2,32.0,0.04707965805159379,1999,0,0,0,0,0,0,0,0,0,0,0,0,0,0,0,0,0,1,0,0,0,0,0,0,0,0,0,1,0,0,0,0,0,0,0,0,0,0,0,0,0,0,0,0,0,0,0,0,0,0,0
2340,"Felsenrainstrasse 73, 8052 Zürich",3.5,85,47.418968200683594,8.539424896240234,0.8945023882442928,31.6,23.0,0.12896428080630623,1999,0,0,0,0,0,0,0,0,0,0,0,0,0,0,0,0,0,1,0,0,0,0,0,0,0,0,0,1,0,0,0,0,0,0,0,0,0,0,0,0,0,0,0,0,0,0,0,0,0,0,0
2590,"Schaffhauserstrasse 438, 8050 Zürich",2.5,47,47.416568756103516,8.545424461364746,0.43094102380112104,42.8,33.3,0.017807078425796333,1999,0,1,0,1,0,0,0,0,0,0,0,0,0,0,0,1,0,0,0,0,0,0,0,0,0,0,0,1,0,0,0,0,0,0,0,0,0,0,0,0,0,0,0,0,0,0,0,0,0,0,0
5085,"Bremgartnerstrasse 51, 8003 Zürich",4.5,144,47.37092590332031,8.518403053283691,1.3515017564515401,41.4,34.9,0.10177052418948425,2014,0,0,0,0,0,0,0,0,0,0,0,0,0,0,0,0,0,0,0,1,0,0,0,0,0,0,0,0,0,0,0,0,0,0,0,0,0,0,0,0,1,0,0,0,0,0,0,0,0,0,0
2380,"Giesshübelstrasse 86, 8045 Zürich",2.5,83,47.35905456542969,8.51839542388916,1.2361490869166163,47.9,42.0,0.10489374849636442,1999,0,0,0,0,1,0,0,0,0,0,0,0,0,0,0,1,0,0,0,0,0,0,0,0,0,0,0,1,0,0,0,0,0,0,0,0,0,0,0,0,0,0,0,0,0,0,0,0,0,0,0
2330,"Wildbachstrasse 60, 8008 Zürich",2.0,52,47.35521697998047,8.557698249816895,0.259651851918238,44.6,35.9,0.06051516524657429,1999,0,0,0,1,0,0,0,0,0,0,0,0,0,0,1,0,0,0,0,0,0,0,0,0,0,0,0,1,0,0,0,0,0,0,0,0,0,0,0,0,0,0,0,0,0,0,0,0,0,0,0
3150,"Pfirsichstrasse 9, 8006 Zürich",3.0,68,47.389434814453125,8.537554740905762,0.8993000846394884,38.1,32.0,0.16180557821851355,1999,0,0,0,0,0,0,0,0,0,0,0,0,0,0,0,0,1,0,0,0,0,0,0,0,0,0,0,1,0,0,0,0,0,0,0,0,0,0,0,0,0,0,0,0,0,0,0,0,0,0,0
1980,"Bändlistrasse 62, 8064 Zürich",2.0,52,47.397212982177734,8.483614921569824,3.474381494573343,61.5,55.3,0.1417044789657288,1999,0,0,0,0,0,0,0,0,0,0,0,0,0,0,1,0,0,0,0,0,0,0,0,0,0,0,0,1,0,0,0,0,0,0,0,0,0,0,0,0,0,0,0,0,0,0,0,0,0,0,0
1990,"Kügeliloostrasse 85, 8046 Zürich",2.5,55,47.414634704589844,8.530470848083496,1.274033057574774,44.9,35.5,0.11763216881568475,2018,0,0,0,0,0,0,0,0,0,0,0,0,0,0,0,1,0,0,0,0,0,0,0,0,0,0,0,0,0,0,0,0,0,0,0,0,0,0,0,0,0,0,0,0,1,0,0,0,0,0,0
3277,"Grimselstrasse 26, 8048 Zürich",3.5,90,47.385597229003906,8.488507270812988,2.133393461573787,37.3,30.4,0.19280948335784134,2023,0,0,0,0,0,0,0,0,0,0,0,0,0,0,0,0,0,1,0,0,0,0,0,0,0,0,0,0,0,0,0,0,0,0,0,0,0,0,0,0,0,0,0,0,0,0,0,0,0,1,0
3818,"Edisonstrasse 5, 8050 Zürich",4.5,109,47.40951919555664,8.545088768005371,0.4067018337112237,40.3,30.4,0.10553883736604981,1999,0,0,0,0,0,0,0,0,0,0,0,0,0,0,0,0,0,0,0,1,0,0,0,0,0,0,0,1,0,0,0,0,0,0,0,0,0,0,0,0,0,0,0,0,0,0,0,0,0,0,0
6850,"Gustav-Gull-Platz 11, 8004 Zürich",5.5,149,47.379425048828125,8.5318021774292,0.0724810531599642,48.1,40.9,0.1549465893384495,2019,0,0,0,0,0,0,0,0,0,0,0,0,0,0,0,0,0,0,0,0,0,1,0,0,0,0,0,0,0,0,0,0,0,0,0,0,0,0,0,0,0,0,0,0,0,1,0,0,0,0,0
2620,"Im Brächli 43, 8053 Zürich",4.0,80,47.36115646362305,8.580795288085938,0.9895085543678743,38.8,28.7,0.1730832975369088,1999,0,0,0,0,0,0,0,0,0,0,0,0,0,0,0,0,0,0,1,0,0,0,0,0,0,0,0,1,0,0,0,0,0,0,0,0,0,0,0,0,0,0,0,0,0,0,0,0,0,0,0
2675,"Affolternstrasse 10, 8050 Zürich",1.5,40,47.41258239746094,8.544683456420898,0.19261963693343703,46.8,37.3,0.07833039106173488,1999,1,0,0,0,0,0,0,0,0,0,0,0,0,1,0,0,0,0,0,0,0,0,0,0,0,0,0,1,0,0,0,0,0,0,0,0,0,0,0,0,0,0,0,0,0,0,0,0,0,0,0
3971,"Rüdigerstrasse 4, 8045 Zürich",3.5,112,47.36099624633789,8.52193832397461,1.1936408264775662,48.8,43.8,0.13260788423205036,2011,1,0,0,0,0,0,0,0,0,0,0,0,0,0,0,0,0,1,0,0,0,0,0,0,0,0,0,0,0,0,0,0,0,0,0,0,0,1,0,0,0,0,0,0,0,0,0,0,0,0,0
4970,"Bremgartnerstrasse 51, 8003 Zürich",4.5,141,47.37092590332031,8.518403053283691,1.3515017564515401,41.4,34.9,0.10177052418948425,2014,0,0,0,0,0,0,0,0,0,0,0,0,0,0,0,0,0,0,0,1,0,0,0,0,0,0,0,0,0,0,0,0,0,0,0,0,0,0,0,0,1,0,0,0,0,0,0,0,0,0,0
4990,"Haspelstrasse 5, 8041 Zürich",2.5,71,47.340545654296875,8.518205642700195,1.6755772227036791,46.6,41.0,0.26621190858450944,2022,0,0,0,0,0,0,0,0,0,0,0,0,0,0,0,1,0,0,0,0,0,0,0,0,0,0,0,0,0,0,0,0,0,0,0,0,0,0,0,0,0,0,0,0,0,0,0,0,1,0,0
1460,"Viktoriastrasse 29, 8057 Zürich",1.5,23,47.40406799316406,8.55045223236084,1.0104250397830146,40.8,33.1,0.18880901557384666,1999,0,0,0,0,0,0,0,0,0,0,0,0,0,1,0,0,0,0,0,0,0,0,0,0,0,0,0,1,0,0,0,0,0,0,0,0,0,0,0,0,0,0,0,0,0,0,0,0,0,0,0
3601,"Haldenstrasse 14, 8045 Zürich",2.5,81,47.36336898803711,8.518133163452148,1.5792356378444856,40.2,32.0,0.04707965805159379,1999,0,0,0,0,0,0,0,0,0,0,0,0,0,0,0,1,0,0,0,0,0,0,0,0,0,0,0,1,0,0,0,0,0,0,0,0,0,0,0,0,0,0,0,0,0,0,0,0,0,0,0
3500,"Käferholzstrasse 52, 8057 Zürich",3.5,100,47.402320861816406,8.531094551086426,0.8580833436508879,44.2,33.1,0.14296085995443822,2020,1,0,0,0,0,0,0,0,0,0,0,0,0,0,0,0,0,1,0,0,0,0,0,0,0,0,0,0,0,0,0,0,0,0,0,0,0,0,0,0,0,0,0,0,0,0,1,0,0,0,0
5685,"Weinplatz 10, 8001 Zürich",2.5,110,47.371639251708984,8.541848182678223,0.7738565621991115,46.3,39.4,0.05579188781684956,1999,0,0,0,0,0,0,0,0,0,0,0,0,0,0,0,1,0,0,0,0,0,0,0,0,0,0,0,1,0,0,0,0,0,0,0,0,0,0,0,0,0,0,0,0,0,0,0,0,0,0,0
2159,"Schwandenholzstrasse 234, 8046 Zürich",2.5,86,47.4245491027832,8.52152156829834,2.856141547919952,34.8,27.1,0.0992756771379044,1999,0,0,0,0,0,0,0,0,0,0,0,0,0,0,0,1,0,0,0,0,0,0,0,0,0,0,0,1,0,0,0,0,0,0,0,0,0,0,0,0,0,0,0,0,0,0,0,0,0,0,0
1920,"Bändlistrasse 62, 8064 Zürich",2.0,53,47.397212982177734,8.483614921569824,3.474381494573343,61.5,55.3,0.1417044789657288,1999,0,0,0,0,0,0,0,0,0,0,0,0,0,0,1,0,0,0,0,0,0,0,0,0,0,0,0,1,0,0,0,0,0,0,0,0,0,0,0,0,0,0,0,0,0,0,0,0,0,0,0
2760,"Hagenholzstrasse 70, 8050 Zürich",1.0,128,47.4133415222168,8.556859016418457,0.7282838075723138,44.5,32.4,0.17561123012317356,2006,1,0,0,0,0,0,0,0,0,0,0,0,1,0,0,0,0,0,0,0,0,0,0,0,0,0,0,0,0,0,0,0,0,1,0,0,0,0,0,0,0,0,0,0,0,0,0,0,0,0,0
2690,"Rümlangstrasse 70, 8052 Zürich",3.5,99,47.42987823486328,8.541399955749512,1.9393590239984029,55.9,45.3,0.029480469987906887,1999,0,0,0,0,0,0,0,0,0,0,0,0,0,0,0,0,0,1,0,0,0,0,0,0,0,0,0,1,0,0,0,0,0,0,0,0,0,0,0,0,0,0,0,0,0,0,0,0,0,0,0
3082,"In der Looren 56, 8053 Zürich",4.5,107,47.36455535888672,8.597229957580566,2.082628119822714,43.4,34.3,0.4219921258963765,2001,0,0,0,0,1,0,0,0,0,0,0,0,0,0,0,0,0,0,0,1,0,0,0,0,0,0,0,0,0,1,0,0,0,0,0,0,0,0,0,0,0,0,0,0,0,0,0,0,0,0,0
4224,"Drusbergstrasse 66, 8053 Zürich",3.5,101,47.35507583618164,8.58290958404541,0.6422377276417083,28.1,19.9,0.37089266658312064,2015,0,0,0,0,0,0,0,0,0,0,0,0,0,0,0,0,0,1,0,0,0,0,0,0,0,0,0,0,0,0,0,0,0,0,0,0,0,0,0,0,0,1,0,0,0,0,0,0,0,0,0
3590,"Im Glockenacker 56, 8053 Zürich",3.5,99,47.36025619506836,8.601366996765137,2.1252661412220992,44.5,36.6,0.15930649548983847,1999,0,0,0,0,1,0,0,0,0,0,0,0,0,0,0,0,0,1,0,0,0,0,0,0,0,0,0,1,0,0,0,0,0,0,0,0,0,0,0,0,0,0,0,0,0,0,0,0,0,0,0
3140,"Schaffhauserstrasse 438, 8050 Zürich",2.0,45,47.416568756103516,8.545424461364746,0.43094102380112104,42.8,33.3,0.017807078425796333,1999,0,0,0,1,0,0,0,0,0,0,0,0,0,0,1,0,0,0,0,0,0,0,0,0,0,0,0,1,0,0,0,0,0,0,0,0,0,0,0,0,0,0,0,0,0,0,0,0,0,0,0
3175,"Pfirsichstrasse 7, 8006 Zürich",3.0,68,47.38933181762695,8.537666320800781,0.8908195099395708,37.5,31.3,0.15911824465168123,1999,0,0,0,0,0,0,0,0,0,0,0,0,0,0,0,0,1,0,0,0,0,0,0,0,0,0,0,1,0,0,0,0,0,0,0,0,0,0,0,0,0,0,0,0,0,0,0,0,0,0,0
4500,"Jenatschstrasse 3, 8002 Zürich",3.5,98,47.36381912231445,8.53400993347168,1.2672620159111054,46.2,40.5,0.09146106390536289,1999,1,0,0,1,0,0,0,0,0,0,0,0,0,0,0,0,0,1,0,0,0,0,0,0,0,0,0,1,0,0,0,0,0,0,0,0,0,0,0,0,0,0,0,0,0,0,0,0,0,0,0
6700,"Utoquai 49, 8008 Zürich",5.0,156,47.362030029296875,8.54778003692627,0.44392963706009686,64.1,57.6,0.19852867789846795,1999,0,0,0,1,0,0,0,0,0,0,0,0,0,0,0,0,0,0,0,0,1,0,0,0,0,0,0,1,0,0,0,0,0,0,0,0,0,0,0,0,0,0,0,0,0,0,0,0,0,0,0
6140,"Plattenstrasse 34, 8032 Zürich",4.5,165,47.37311553955078,8.553730964660645,0.3546310739300845,49.4,37.3,0.22593805542080628,1999,0,0,0,0,0,0,0,0,0,0,0,0,0,0,0,0,0,0,0,1,0,0,0,0,0,0,0,1,0,0,0,0,0,0,0,0,0,0,0,0,0,0,0,0,0,0,0,0,0,0,0
3073,"Kurfirstenstrasse 43, 8002 Zürich",2.5,75,47.35411071777344,8.52872085571289,0.28398702107524293,47.0,41.9,0.1823900599348749,2014,0,0,0,0,0,0,0,0,0,0,0,0,0,0,0,1,0,0,0,0,0,0,0,0,0,0,0,0,0,0,0,0,0,0,0,0,0,0,0,0,1,0,0,0,0,0,0,0,0,0,0
2132,"Dorfstrasse 12, 8037 Zürich",3.0,62,47.39414596557617,8.523874282836914,0.5505261903578268,41.5,35.0,0.1213617451679952,1999,0,0,0,0,0,0,0,0,0,0,0,0,0,0,0,0,1,0,0,0,0,0,0,0,0,0,0,1,0,0,0,0,0,0,0,0,0,0,0,0,0,0,0,0,0,0,0,0,0,0,0
2738,"Hohlstrasse 104, 8004 Zürich",2.5,49,47.37917709350586,8.522705078125,0.6191997929800611,62.4,53.6,0.06330652577009403,2017,0,0,0,0,0,0,0,0,0,0,0,0,0,0,0,1,0,0,0,0,0,0,0,0,0,0,0,0,0,0,0,0,0,0,0,0,0,0,0,0,0,0,0,1,0,0,0,0,0,0,0
1990,"Überlandstrasse 453, 8051 Zürich",5.0,96,47.4061393737793,8.59299087524414,3.739886557307929,58.7,53.1,0.1479039891531938,0,0,0,0,0,0,0,0,0,0,0,0,0,0,0,0,0,0,0,0,0,1,0,0,0,0,0,1,0,0,0,0,0,0,0,0,0,0,0,0,0,0,0,0,0,0,0,0,0,0,0,0
1330,"Wannerstrasse 47, 8045 Zürich",1.5,37,47.356929779052734,8.517558097839355,1.1710934561743653,47.3,42.0,0.2034882160310515,1999,0,0,0,0,0,0,0,0,0,0,0,0,0,1,0,0,0,0,0,0,0,0,0,0,0,0,0,1,0,0,0,0,0,0,0,0,0,0,0,0,0,0,0,0,0,0,0,0,0,0,0
3371,"Baslerstrasse 77, 8048 Zürich",3.0,84,47.386112213134766,8.496638298034668,2.065279445010333,52.3,43.9,0.031044608159960452,2022,0,0,0,0,0,0,0,0,0,0,0,0,0,0,0,0,1,0,0,0,0,0,0,0,0,0,0,0,0,0,0,0,0,0,0,0,0,0,0,0,0,0,0,0,0,0,0,0,1,0,0
4985,"Eisengasse 18, 8008 Zürich",4.0,122,47.36260986328125,8.552190780639648,0.5505428490443759,35.8,27.9,0.24131280021056073,2014,0,0,0,1,0,0,0,0,0,0,0,0,0,0,0,0,0,0,1,0,0,0,0,0,0,0,0,0,0,0,0,0,0,0,0,0,0,0,0,0,1,0,0,0,0,0,0,0,0,0,0
3210,"Kronenstrasse 25, 8006 Zürich",2.5,68,47.38743591308594,8.537176132202148,0.6792150756427129,52.1,42.7,0.12494541941474964,2012,0,0,0,0,0,0,0,0,0,0,0,0,0,0,0,1,0,0,0,0,0,0,0,0,0,0,0,0,0,0,0,0,0,0,0,0,0,0,1,0,0,0,0,0,0,0,0,0,0,0,0
4920,"Zeunerstrasse 11, 8037 Zürich",2.5,105,47.39268112182617,8.527177810668945,0.8144600557950524,38.7,31.7,0.15990044300361617,1999,0,0,0,0,0,0,0,0,0,0,0,0,0,0,0,1,0,0,0,0,0,0,0,0,0,0,0,1,0,0,0,0,0,0,0,0,0,0,0,0,0,0,0,0,0,0,0,0,0,0,0
2030,"Margrit Rainer-Str. 13, 8050 Zürich",2.5,79,47.415748596191406,8.537668228149414,0.7849908642119009,39.1,31.9,0.10232368871120268,0,0,0,0,0,0,0,0,0,0,0,0,0,0,0,0,1,0,0,0,0,0,0,0,0,0,0,1,0,0,0,0,0,0,0,0,0,0,0,0,0,0,0,0,0,0,0,0,0,0,0,0
3830,"Zeunerstrasse 11, 8037 Zürich",3.0,87,47.39268112182617,8.527177810668945,0.8144600557950524,38.7,31.7,0.15990044300361617,1999,0,0,0,0,0,0,0,0,0,0,0,0,0,0,0,0,1,0,0,0,0,0,0,0,0,0,0,1,0,0,0,0,0,0,0,0,0,0,0,0,0,0,0,0,0,0,0,0,0,0,0
3390,"Zeunerstrasse 11, 8037 Zürich",3.0,64,47.39268112182617,8.527177810668945,0.8144600557950524,38.7,31.7,0.15990044300361617,1999,0,0,0,0,0,0,0,0,0,0,0,0,0,0,0,0,1,0,0,0,0,0,0,0,0,0,0,1,0,0,0,0,0,0,0,0,0,0,0,0,0,0,0,0,0,0,0,0,0,0,0
2150,"Im Brächli 39, 8053 Zürich",3.5,71,47.36067199707031,8.581207275390625,0.954330239559541,43.5,33.1,0.18227939534302828,1999,0,0,0,0,0,0,0,0,0,0,0,0,0,0,0,0,0,1,0,0,0,0,0,0,0,0,0,1,0,0,0,0,0,0,0,0,0,0,0,0,0,0,0,0,0,0,0,0,0,0,0
1775,"Stiglenstrasse 33, 8052 Zürich",2.5,60,47.4272575378418,8.551857948303223,1.63606213256798,45.9,40.9,0.24319935892234734,1999,0,0,0,0,0,0,0,0,0,1,0,0,0,0,0,1,0,0,0,0,0,0,0,0,0,0,0,1,0,0,0,0,0,0,0,0,0,0,0,0,0,0,0,0,0,0,0,0,0,0,0
3345,"Baslerstrasse 75, 8048 Zürich",3.0,85,47.3858642578125,8.496522903442383,2.0382732810199116,46.5,37.0,0.0559941125768811,2022,1,0,0,0,0,0,0,0,0,0,0,0,0,0,0,0,1,0,0,0,0,0,0,0,0,0,0,0,0,0,0,0,0,0,0,0,0,0,0,0,0,0,0,0,0,0,0,0,1,0,0
2172,"Verena Conzett-Strasse 22, 8004 Zürich",2.0,60,47.37055587768555,8.526243209838867,1.0703285387417496,39.9,33.5,0.22921991431195604,0,0,0,1,0,0,0,0,0,0,0,0,0,0,0,1,0,0,0,0,0,0,0,0,0,0,0,1,0,0,0,0,0,0,0,0,0,0,0,0,0,0,0,0,0,0,0,0,0,0,0,0
3280,"Buckhauserstrasse 45, 8048 Zürich",3.5,90,47.3843994140625,8.493941307067871,1.898749817836845,49.1,38.5,0.12703546668850701,2022,1,0,1,0,0,0,0,0,0,0,0,0,0,0,0,0,0,1,0,0,0,0,0,0,0,0,0,0,0,0,0,0,0,0,0,0,0,0,0,0,0,0,0,0,0,0,0,0,1,0,0
1682,"Dorfstrasse 12, 8037 Zürich",3.0,62,47.39414596557617,8.523874282836914,0.5505261903578268,41.5,35.0,0.1213617451679952,1999,0,0,0,0,0,0,0,0,0,0,0,0,0,0,0,0,1,0,0,0,0,0,0,0,0,0,0,1,0,0,0,0,0,0,0,0,0,0,0,0,0,0,0,0,0,0,0,0,0,0,0
2790,"Kraftstrasse 15, 8044 Zürich",4.0,101,47.37721252441406,8.559478759765625,0.6256651293862524,58.4,47.5,0.0906006976834087,1999,0,0,0,0,0,0,0,0,0,0,0,0,0,0,0,0,0,0,1,0,0,0,0,0,0,0,0,1,0,0,0,0,0,0,0,0,0,0,0,0,0,0,0,0,0,0,0,0,0,0,0
5080,"Wuhrstrasse 30, 8003 Zürich",3.5,97,47.36793518066406,8.520748138427734,1.5103949568764419,41.6,35.8,0.17102274368405185,1999,1,0,0,0,0,0,0,0,0,0,0,0,0,0,0,0,0,1,0,0,0,0,0,0,0,0,0,1,0,0,0,0,0,0,0,0,0,0,0,0,0,0,0,0,0,0,0,0,0,0,0
2360,"Kraftstrasse 15, 8044 Zürich",3.0,82,47.37721252441406,8.559478759765625,0.6256651293862524,58.4,47.5,0.0906006976834087,1999,0,0,0,0,0,0,0,0,0,0,0,0,0,0,0,0,1,0,0,0,0,0,0,0,0,0,0,1,0,0,0,0,0,0,0,0,0,0,0,0,0,0,0,0,0,0,0,0,0,0,0
6400,"Forchstrasse 62, 8008 Zürich",6.0,165,47.3626708984375,8.558123588562012,0.6549618975109868,67.7,58.0,0.07274336949516212,1999,0,0,0,1,0,0,0,0,0,0,0,0,0,0,0,0,0,0,0,0,0,0,1,0,0,0,0,1,0,0,0,0,0,0,0,0,0,0,0,0,0,0,0,0,0,0,0,0,0,0,0
5195,"Pflugstrasse 18, 8006 Zürich",3.5,114,47.390472412109375,8.538491249084473,1.030650381282055,51.1,43.2,0.13470829268943274,1999,0,0,0,1,0,0,0,0,0,0,0,0,0,0,0,0,0,1,0,0,0,0,0,0,0,0,0,1,0,0,0,0,0,0,0,0,0,0,0,0,0,0,0,0,0,0,0,0,0,0,0
3700,"Käferholzstrasse 42, 8057 Zürich",3.5,103,47.401912689208984,8.531828880310059,0.8881023842628276,32.2,25.3,0.20672444264774292,2020,1,0,0,0,0,0,0,0,0,0,0,0,0,0,0,0,0,1,0,0,0,0,0,0,0,0,0,0,0,0,0,0,0,0,0,0,0,0,0,0,0,0,0,0,0,0,1,0,0,0,0
3199,"Susenbergstrasse 142, 8044 Zürich",3.5,79,47.384761810302734,8.55949878692627,0.9621867270314002,45.9,33.8,0.13154361804741657,1999,0,0,0,0,0,0,0,0,0,0,0,0,0,0,0,0,0,1,0,0,0,0,0,0,0,0,0,1,0,0,0,0,0,0,0,0,0,0,0,0,0,0,0,0,0,0,0,0,0,0,0
5805,"Walchestrasse 25, 8006 Zürich",5.0,181,47.381141662597656,8.541439056396484,0.5544726688875484,45.8,37.8,0.13734326456878343,1999,0,0,0,0,0,0,0,0,0,0,0,0,0,0,0,0,0,0,0,0,1,0,0,0,0,0,0,1,0,0,0,0,0,0,0,0,0,0,0,0,0,0,0,0,0,0,0,0,0,0,0
4355,"Aemtlerstrasse 17, 8003 Zürich",2.5,102,47.37135314941406,8.515939712524414,1.4560591817659718,61.5,54.2,0.017079364095598903,1999,0,0,0,0,0,0,0,0,0,0,0,0,0,0,0,1,0,0,0,0,0,0,0,0,0,0,0,1,0,0,0,0,0,0,0,0,0,0,0,0,0,0,0,0,0,0,0,0,0,0,0
1884,"Luegislandstrasse 56, 8051 Zürich",3.0,66,47.40608215332031,8.567268371582031,1.6887754004762634,49.5,37.8,0.09487643322748647,1999,0,0,0,0,0,0,0,0,0,0,0,0,0,0,0,0,1,0,0,0,0,0,0,0,0,0,0,1,0,0,0,0,0,0,0,0,0,0,0,0,0,0,0,0,0,0,0,0,0,0,0
1610,"Universitätsstrasse 110, 8006 Zürich",1.0,19,47.38496780395508,8.548614501953125,0.7472028914494572,61.2,55.3,0.12274915762696764,0,0,0,0,0,1,0,0,0,0,0,0,0,1,0,0,0,0,0,0,0,0,0,0,0,0,0,1,0,0,0,0,0,0,0,0,0,0,0,0,0,0,0,0,0,0,0,0,0,0,0,0
4625,"Seefeldstrasse 168, 8008 Zürich",4.5,89,47.35554504394531,8.556349754333496,0.3389165766721365,53.4,45.0,0.0587927752533203,1999,0,0,0,0,1,0,0,0,0,0,0,0,0,0,0,0,0,0,0,1,0,0,0,0,0,0,0,1,0,0,0,0,0,0,0,0,0,0,0,0,0,0,0,0,0,0,0,0,0,0,0
2990,"Forchstrasse 347, 8008 Zürich",4.0,81,47.35370635986328,8.57643985748291,0.10661488170026674,64.4,57.2,0.14773749110994122,1999,0,0,0,0,0,0,0,0,0,0,0,0,0,0,0,0,0,0,1,0,0,0,0,0,0,0,0,1,0,0,0,0,0,0,0,0,0,0,0,0,0,0,0,0,0,0,0,0,0,0,0
2593,"Käferholzstrasse 44, 8057 Zürich",2.5,63,47.4019775390625,8.532269477844238,0.9213920744794558,40.4,34.0,0.21869930086122963,2020,1,0,0,0,0,0,0,0,0,0,0,0,0,0,0,1,0,0,0,0,0,0,0,0,0,0,0,0,0,0,0,0,0,0,0,0,0,0,0,0,0,0,0,0,0,0,1,0,0,0,0
2500,"Grossackerstrasse 71, 8041 Zürich",3.5,84,47.324195861816406,8.509740829467773,3.5583255675682897,9.3,0.0,0.3625827350793647,1999,0,0,0,0,0,0,0,0,0,0,0,0,0,0,0,0,0,1,0,0,0,0,0,0,0,0,0,1,0,0,0,0,0,0,0,0,0,0,0,0,0,0,0,0,0,0,0,0,0,0,0
3562,"Jenatschstrasse 3, 8002 Zürich",2.5,70,47.36381912231445,8.53400993347168,1.2672620159111054,46.2,40.5,0.09146106390536289,1999,1,0,0,1,0,0,0,0,0,0,0,0,0,0,0,1,0,0,0,0,0,0,0,0,0,0,0,1,0,0,0,0,0,0,0,0,0,0,0,0,0,0,0,0,0,0,0,0,0,0,0
1575,"Caspar-Wüst-Strasse 25, 8052 Zürich",3.0,68,47.42967224121094,8.542895317077637,1.8945927559990547,47.7,42.2,0.12732703079784405,1999,0,0,0,0,0,0,0,0,0,0,0,0,0,0,0,0,1,0,0,0,0,0,0,0,0,0,0,1,0,0,0,0,0,0,0,0,0,0,0,0,0,0,0,0,0,0,0,0,0,0,0
3174,"Albisriederstrasse 278, 8047 Zürich",3.5,118,47.377864837646484,8.491551399230957,1.2495513138138845,48.0,40.7,0.1965331196076297,1999,0,0,0,0,0,0,1,0,0,0,0,0,0,0,0,0,0,1,0,0,0,0,0,0,0,0,0,1,0,0,0,0,0,0,0,0,0,0,0,0,0,0,0,0,0,0,0,0,0,0,0
3200,"Turbinenstrasse 60, 8005 Zürich",2.5,79,47.38710403442383,8.512904167175293,1.3304555459428353,44.6,37.7,0.2847598143931855,2014,0,0,0,0,0,0,1,0,0,0,0,0,0,0,0,1,0,0,0,0,0,0,0,0,0,0,0,0,0,0,0,0,0,0,0,0,0,0,0,0,1,0,0,0,0,0,0,0,0,0,0
5300,"Spinnereiplatz 1, 8041 Zürich",4.5,149,47.3387336730957,8.520673751831055,1.744182466609453,51.1,46.1,0.09106654608657158,2018,0,0,0,0,0,0,0,0,0,0,0,0,0,0,0,0,0,0,0,1,0,0,0,0,0,0,0,0,0,0,0,0,0,0,0,0,0,0,0,0,0,0,0,0,1,0,0,0,0,0,0
2555,"Kühriedweg 28, 8050 Zürich",3.5,88,47.409366607666016,8.557765007019043,0.8857956841231841,40.1,28.5,0.1784193488158938,1999,0,0,0,0,0,0,0,0,0,0,0,0,0,0,0,0,0,1,0,0,0,0,0,0,0,0,0,1,0,0,0,0,0,0,0,0,0,0,0,0,0,0,0,0,0,0,0,0,0,0,0
3860,"Brinerstrasse 3, 8003 Zürich",3.5,78,47.36940383911133,8.518498420715332,1.473142150178376,50.1,43.4,0.09114632118830872,1999,0,1,0,0,0,0,0,0,0,0,0,0,0,0,0,0,0,1,0,0,0,0,0,0,0,0,0,1,0,0,0,0,0,0,0,0,0,0,0,0,0,0,0,0,0,0,0,0,0,0,0
1954,"Hugostrasse 10, 8050 Zürich",4.0,85,47.40824890136719,8.548201560974121,0.520951821201825,45.0,37.4,0.12254881814334541,1999,0,0,1,0,0,0,0,0,0,0,0,0,0,0,0,0,0,0,1,0,0,0,0,0,0,0,0,1,0,0,0,0,0,0,0,0,0,0,0,0,0,0,0,0,0,0,0,0,0,0,0
3670,"Spindelstrasse 7, 8041 Zürich",3.5,104,47.338653564453125,8.51783561706543,1.8628148074074833,42.4,37.3,0.10673139911354745,0,0,0,0,0,1,0,0,0,0,0,0,0,0,0,0,0,0,1,0,0,0,0,0,0,0,0,1,0,0,0,0,0,0,0,0,0,0,0,0,0,0,0,0,0,0,0,0,0,0,0,0
4270,"Spindelstrasse 7, 8041 Zürich",4.5,117,47.338653564453125,8.51783561706543,1.8628148074074833,42.4,37.3,0.10673139911354745,0,0,0,0,0,1,0,0,0,0,0,0,0,0,0,0,0,0,0,0,1,0,0,0,0,0,0,1,0,0,0,0,0,0,0,0,0,0,0,0,0,0,0,0,0,0,0,0,0,0,0,0
2610,"Spindelstrasse 7, 8041 Zürich",2.5,63,47.338653564453125,8.51783561706543,1.8628148074074833,42.4,37.3,0.10673139911354745,0,0,0,0,0,1,0,0,0,0,0,0,0,0,0,0,1,0,0,0,0,0,0,0,0,0,0,1,0,0,0,0,0,0,0,0,0,0,0,0,0,0,0,0,0,0,0,0,0,0,0,0
5242,"Zeltweg 25, 8032 Zürich",4.5,142,47.36848831176758,8.5512056350708,0.6191243168026764,57.7,51.9,0.136197839542764,1999,0,0,0,0,0,0,0,1,0,0,0,0,0,0,0,0,0,0,0,1,0,0,0,0,0,0,0,1,0,0,0,0,0,0,0,0,0,0,0,0,0,0,0,0,0,0,0,0,0,0,0
6700,"Birchstrasse 180, 8050 Zürich",2.0,73,47.4139518737793,8.538322448730469,0.6787431673292437,37.3,29.5,0.04880153811998751,2006,0,0,0,0,0,0,0,0,0,0,0,0,0,0,1,0,0,0,0,0,0,0,0,0,0,0,0,0,0,0,0,0,0,1,0,0,0,0,0,0,0,0,0,0,0,0,0,0,0,0,0
4660,"Birchstrasse 180, 8050 Zürich",2.0,55,47.4139518737793,8.538322448730469,0.6787431673292437,37.3,29.5,0.04880153811998751,2006,0,0,0,0,0,0,0,0,0,0,0,0,0,0,1,0,0,0,0,0,0,0,0,0,0,0,0,0,0,0,0,0,0,1,0,0,0,0,0,0,0,0,0,0,0,0,0,0,0,0,0
2485,"Winterthurerstrasse 346, 8057 Zürich",4.5,97,47.403690338134766,8.558340072631836,1.321972258111709,47.7,39.8,0.08673214789363123,1999,0,0,1,0,0,0,0,0,0,0,0,0,0,0,0,0,0,0,0,1,0,0,0,0,0,0,0,1,0,0,0,0,0,0,0,0,0,0,0,0,0,0,0,0,0,0,0,0,0,0,0
6680,"Birchstrasse 180, 8050 Zürich",3.0,74,47.4139518737793,8.538322448730469,0.6787431673292437,37.3,29.5,0.04880153811998751,2006,0,0,0,0,0,0,0,0,0,0,0,0,0,0,0,0,1,0,0,0,0,0,0,0,0,0,0,0,0,0,0,0,0,1,0,0,0,0,0,0,0,0,0,0,0,0,0,0,0,0,0
2242,"Würzwies 9, 8064 Zürich",2.0,53,47.39792251586914,8.492865562438965,2.0120267925979927,40.3,32.8,0.13884174669358074,1999,0,0,0,0,0,0,0,0,0,0,0,0,0,0,1,0,0,0,0,0,0,0,0,0,0,0,0,1,0,0,0,0,0,0,0,0,0,0,0,0,0,0,0,0,0,0,0,0,0,0,0
6068,"Limmatquai 84, 8001 Zürich",2.5,94,47.37363052368164,8.54304313659668,0.5606349651529283,45.2,38.2,0.036650679699304134,0,0,0,0,0,0,0,0,0,0,0,0,0,0,0,0,1,0,0,0,0,0,0,0,0,0,0,1,0,0,0,0,0,0,0,0,0,0,0,0,0,0,0,0,0,0,0,0,0,0,0,0
3300,"Zelgstrasse 1, 8003 Zürich",2.0,51,47.36696243286133,8.522683143615723,1.5405463121420846,62.3,57.0,0.08308792343132518,2017,0,0,0,0,0,0,0,0,0,0,0,0,0,0,1,0,0,0,0,0,0,0,0,0,0,0,0,0,0,0,0,0,0,0,0,0,0,0,0,0,0,0,0,1,0,0,0,0,0,0,0
3495,"Saatlenstrasse 13, 8051 Zürich",4.5,119,47.4046630859375,8.570609092712402,1.9844453620548446,44.7,37.7,0.09648864605054505,1999,0,0,0,0,0,0,1,0,0,0,0,0,0,0,0,0,0,0,0,1,0,0,0,0,0,0,0,1,0,0,0,0,0,0,0,0,0,0,0,0,0,0,0,0,0,0,0,0,0,0,0
4827,"Wolframplatz 1, 8045 Zurich",2.0,57,47.362281799316406,8.52219295501709,1.2986496235596687,63.3,57.8,0.04504845091959406,0,0,0,0,0,0,0,0,0,0,0,0,0,0,0,1,0,0,0,0,0,0,0,0,0,0,0,1,0,0,0,0,0,0,0,0,0,0,0,0,0,0,0,0,0,0,0,0,0,0,0,0
3415,"Wolframplatz 1, 8045 Zurich",1.0,33,47.362281799316406,8.52219295501709,1.2986496235596687,63.3,57.8,0.04504845091959406,0,0,0,0,0,0,0,0,0,0,0,0,0,1,0,0,0,0,0,0,0,0,0,0,0,0,0,1,0,0,0,0,0,0,0,0,0,0,0,0,0,0,0,0,0,0,0,0,0,0,0,0
3519,"Wolframplatz 1, 8045 Zurich",1.0,29,47.362281799316406,8.52219295501709,1.2986496235596687,63.3,57.8,0.04504845091959406,0,0,0,0,0,0,0,0,0,0,0,0,0,1,0,0,0,0,0,0,0,0,0,0,0,0,0,1,0,0,0,0,0,0,0,0,0,0,0,0,0,0,0,0,0,0,0,0,0,0,0,0
3000,"Wolframplatz 1, 8045 Zurich",1.0,26,47.362281799316406,8.52219295501709,1.2986496235596687,63.3,57.8,0.04504845091959406,0,0,0,0,0,0,0,0,0,0,0,0,0,1,0,0,0,0,0,0,0,0,0,0,0,0,0,1,0,0,0,0,0,0,0,0,0,0,0,0,0,0,0,0,0,0,0,0,0,0,0,0
3380,"Binzallee 37, 8055 Zürich",3.5,114,47.3658561706543,8.514451026916504,1.2386357383580655,40.5,27.8,0.34597392702537544,2005,0,0,0,0,0,0,0,0,0,0,0,0,0,0,0,0,0,1,0,0,0,0,0,0,0,0,0,0,0,0,0,0,1,0,0,0,0,0,0,0,0,0,0,0,0,0,0,0,0,0,0
3400,"Wasserschöpfi 17, 8055 Zürich",4.5,109,47.36531448364258,8.507551193237305,0.7475481647466614,33.2,22.2,0.07090348403631425,2009,1,0,0,0,0,0,0,0,0,0,0,0,0,0,0,0,0,0,0,1,0,0,0,0,0,0,0,0,0,0,0,0,0,0,0,1,0,0,0,0,0,0,0,0,0,0,0,0,0,0,0
5990,"Splügenstrasse 8, 8002 Zürich",5.5,146,47.36448669433594,8.533613204956055,1.3372424340413227,50.7,45.0,0.16305951728355636,1999,1,0,0,1,0,0,0,0,0,0,0,0,0,0,0,0,0,0,0,0,0,1,0,0,0,0,0,1,0,0,0,0,0,0,0,0,0,0,0,0,0,0,0,0,0,0,0,0,0,0,0
2595,"Letzigraben 136, 8047 Zürich",2.5,87,47.37605285644531,8.496402740478516,0.9530374411162138,43.9,35.1,0.1971617669005377,2016,1,0,0,0,0,0,0,0,0,0,0,0,0,0,0,1,0,0,0,0,0,0,0,0,0,0,0,0,0,0,0,0,0,0,0,0,0,0,0,0,0,0,1,0,0,0,0,0,0,0,0
1813,"In Böden 177, 8046 Zürich",3.0,68,47.41950607299805,8.507269859313965,2.503449961764584,52.9,44.5,0.07189101625700509,1999,0,0,0,0,0,0,0,0,0,0,0,0,0,0,0,0,1,0,0,0,0,0,0,0,0,0,0,1,0,0,0,0,0,0,0,0,0,0,0,0,0,0,0,0,0,0,0,0,0,0,0
4390,"Döltschiweg 31, 8055 Zürich",4.5,109,47.36698913574219,8.508426666259766,0.7728807580310104,29.5,19.7,0.24954440306149137,1999,0,0,0,0,0,0,0,0,0,0,0,0,0,0,0,0,0,0,0,1,0,0,0,0,0,0,0,1,0,0,0,0,0,0,0,0,0,0,0,0,0,0,0,0,0,0,0,0,0,0,0
2995,"Sumatrastrasse 5, 8006 Zürich",3.0,72,47.3802490234375,8.543473243713379,0.5858368698418017,45.1,38.6,0.053561252595684464,2017,0,0,0,0,1,0,0,0,0,0,0,0,0,0,0,0,1,0,0,0,0,0,0,0,0,0,0,0,0,0,0,0,0,0,0,0,0,0,0,0,0,0,0,1,0,0,0,0,0,0,0
1776,"Brauerstrasse 3, 8004 Zürich",1.0,30,47.376976013183594,8.528350830078125,0.3539168298578693,53.6,45.1,0.2218370917907699,1999,0,0,0,0,0,0,0,0,0,0,0,0,1,0,0,0,0,0,0,0,0,0,0,0,0,0,0,1,0,0,0,0,0,0,0,0,0,0,0,0,0,0,0,0,0,0,0,0,0,0,0
2380,"Grubenackerstrasse 71, 8052 Zürich",2.0,46,47.4189338684082,8.552834510803223,0.7949092616657332,44.9,37.1,0.18206779777983859,2024,0,0,0,0,1,0,1,0,0,0,0,0,0,0,1,0,0,0,0,0,0,0,0,0,0,0,0,0,0,0,0,0,0,0,0,0,0,0,0,0,0,0,0,0,0,0,0,0,0,0,1
4683,"Gloriastrasse 70, 8044 Zürich",3.5,123,47.37563705444336,8.5568265914917,0.44754305988779586,40.0,30.1,0.22131602702916928,2011,0,0,0,1,0,0,0,0,0,0,0,0,0,0,0,0,0,1,0,0,0,0,0,0,0,0,0,0,0,0,0,0,0,0,0,0,0,1,0,0,0,0,0,0,0,0,0,0,0,0,0
2024,"Uetlibergstrasse 29, 8045 Zürich",2.0,62,47.36402130126953,8.520737648010254,1.5205401689710918,43.5,38.0,0.17941406818909633,1999,0,0,0,0,0,0,0,0,0,0,0,0,0,0,1,0,0,0,0,0,0,0,0,0,0,0,0,1,0,0,0,0,0,0,0,0,0,0,0,0,0,0,0,0,0,0,0,0,0,0,0
2990,"Badenerstrasse 274, 8004 Zürich",3.0,80,47.376461029052734,8.514782905578613,1.2642517804924678,63.6,59.2,0.08048303056193458,2019,0,0,0,0,0,0,1,0,0,0,0,0,0,0,0,0,1,0,0,0,0,0,0,0,0,0,0,0,0,0,0,0,0,0,0,0,0,0,0,0,0,0,0,0,0,1,0,0,0,0,0
4510,"Dufourstrasse 61, 8008 Zürich",3.5,102,47.36140060424805,8.5498628616333,0.3681632660556358,54.0,46.8,0.19896932192761138,1999,0,0,0,1,0,0,0,0,0,0,0,0,0,0,0,0,0,1,0,0,0,0,0,0,0,0,0,1,0,0,0,0,0,0,0,0,0,0,0,0,0,0,0,0,0,0,0,0,0,0,0
1220,"St.Jakobstrasse 57, 8004 Zürich",1.0,16,47.37537384033203,8.530084609985352,0.4794869086933287,48.3,38.5,0.22581666527390928,0,0,0,0,0,0,0,0,0,0,0,0,0,1,0,0,0,0,0,0,0,0,0,0,0,0,0,1,0,0,0,0,0,0,0,0,0,0,0,0,0,0,0,0,0,0,0,0,0,0,0,0
2990,"Badenerstrasse 136, 8004 Zürich",2.5,69,47.37461471557617,8.522954940795898,0.8193677247082694,48.3,43.8,0.09942640097991734,2021,0,0,0,0,0,0,0,0,0,0,0,0,0,0,0,1,0,0,0,0,0,0,0,0,0,0,0,0,0,0,0,0,0,0,0,0,0,0,0,0,0,0,0,0,0,0,0,1,0,0,0
3010,"Wiesliacher 91, 8053 Zürich",4.5,122,47.3553581237793,8.59628677368164,1.5622642641107465,28.2,18.4,0.04239340896792477,1999,0,0,0,0,0,0,0,0,0,0,0,0,0,0,0,0,0,0,0,1,0,0,0,0,0,0,0,1,0,0,0,0,0,0,0,0,0,0,0,0,0,0,0,0,0,0,0,0,0,0,0
2490,"Bremgartnerstrasse 30, 8003 Zürich",3.0,55,47.371551513671875,8.518989562988281,1.2709244626764038,38.9,31.7,0.15838185516722023,2010,0,0,0,0,0,0,0,0,0,0,0,0,0,0,0,0,1,0,0,0,0,0,0,0,0,0,0,0,0,0,0,0,0,0,0,0,1,0,0,0,0,0,0,0,0,0,0,0,0,0,0
4990,"Hardturmstrasse 253, 8005 Zürich",1.0,186,47.3935546875,8.508553504943848,0.9772596050626785,59.9,53.3,0.026105423020106724,1999,1,0,0,0,0,0,0,0,0,0,0,0,1,0,0,0,0,0,0,0,0,0,0,0,0,0,0,1,0,0,0,0,0,0,0,0,0,0,0,0,0,0,0,0,0,0,0,0,0,0,0
3227,"Max Bill Platz 9, 8050 Zürich",4.0,107,47.41413497924805,8.539446830749512,0.6000095782891489,56.2,48.5,0.117326152882142,0,0,0,0,0,0,0,0,0,0,0,0,0,0,0,0,0,0,0,1,0,0,0,0,0,0,0,1,0,0,0,0,0,0,0,0,0,0,0,0,0,0,0,0,0,0,0,0,0,0,0,0
3985,"Binzallee 24, 8055 Zürich",3.5,114,47.365089416503906,8.515739440917969,1.3494162761836521,35.7,27.3,0.2725995809546744,2005,0,0,0,0,0,0,0,0,0,0,0,0,0,0,0,0,0,1,0,0,0,0,0,0,0,0,0,0,0,0,0,0,1,0,0,0,0,0,0,0,0,0,0,0,0,0,0,0,0,0,0
4380,"Grabenwies 30, 8057 Zürich",3.5,91,47.4026985168457,8.537415504455566,1.3511450865432604,35.2,28.5,0.18583378369876768,2024,0,1,0,0,0,0,0,0,0,0,0,0,0,0,0,0,0,1,0,0,0,0,0,0,0,0,0,0,0,0,0,0,0,0,0,0,0,0,0,0,0,0,0,0,0,0,0,0,0,0,1
2760,"Zeltweg 49, 8032 Zürich",2.0,52,47.36791229248047,8.552207946777344,0.6017312034721579,59.5,53.7,0.046877982609843674,1999,0,0,0,0,0,0,0,0,0,0,0,0,0,0,1,0,0,0,0,0,0,0,0,0,0,0,0,1,0,0,0,0,0,0,0,0,0,0,0,0,0,0,0,0,0,0,0,0,0,0,0
2990,"Limmatstrasse 27, 8005 Zürich",2.5,63,47.38096237182617,8.53622817993164,0.17815851075403633,66.7,61.6,0.16152670755264162,2020,0,0,0,0,0,0,0,0,0,0,1,0,0,0,0,1,0,0,0,0,0,0,0,0,0,0,0,0,0,0,0,0,0,0,0,0,0,0,0,0,0,0,0,0,0,0,1,0,0,0,0
3390,"Zeltweg 51, 8032 Zürich",3.0,77,47.36783218383789,8.552345275878906,0.6006751656021304,37.5,31.6,0.038390633483087015,1999,0,0,0,0,0,0,0,0,0,0,0,0,0,0,0,0,1,0,0,0,0,0,0,0,0,0,0,1,0,0,0,0,0,0,0,0,0,0,0,0,0,0,0,0,0,0,0,0,0,0,0
1810,"Luegislandstrasse 56, 8051 Zürich",3.0,66,47.40608215332031,8.567268371582031,1.6887754004762634,49.5,37.8,0.09487643322748647,1999,0,0,0,0,0,0,0,0,0,0,0,0,0,0,0,0,1,0,0,0,0,0,0,0,0,0,0,1,0,0,0,0,0,0,0,0,0,0,0,0,0,0,0,0,0,0,0,0,0,0,0
2150,"Mainaustrasse 49, 8008 Zürich",1.5,41,47.36133575439453,8.55277156829834,0.4523842557569968,40.2,30.3,0.10727348374783187,1999,0,0,1,0,0,0,0,0,0,0,0,0,0,1,0,0,0,0,0,0,0,0,0,0,0,0,0,1,0,0,0,0,0,0,0,0,0,0,0,0,0,0,0,0,0,0,0,0,0,0,0
1740,"Jungholzstrasse 20, 8050 Zürich",1.5,43,47.41342544555664,8.54434871673584,0.22308959386690666,54.0,44.6,0.11782777835573777,1999,0,0,1,0,0,0,0,0,0,0,0,0,0,1,0,0,0,0,0,0,0,0,0,0,0,0,0,1,0,0,0,0,0,0,0,0,0,0,0,0,0,0,0,0,0,0,0,0,0,0,0
2090,"Riedhofstrasse 378, 8049 Zürich",2.0,53,47.40996551513672,8.48130989074707,3.16535140329779,46.6,39.8,0.13044249841296388,1999,0,0,0,0,0,0,0,0,0,0,0,0,0,0,1,0,0,0,0,0,0,0,0,0,0,0,0,1,0,0,0,0,0,0,0,0,0,0,0,0,0,0,0,0,0,0,0,0,0,0,0
2377,"Rotachstrasse 33, 8003 Zurich",1.0,21,47.370792388916016,8.514747619628906,1.296711143445745,62.3,55.6,0.08708606678325438,0,0,0,0,0,0,0,0,0,0,0,0,0,1,0,0,0,0,0,0,0,0,0,0,0,0,0,1,0,0,0,0,0,0,0,0,0,0,0,0,0,0,0,0,0,0,0,0,0,0,0,0
3934,"Wolframplatz 1, 8045 Zurich",2.0,41,47.362281799316406,8.52219295501709,1.2986496235596687,63.3,57.8,0.04504845091959406,0,0,0,0,0,0,0,0,0,0,0,0,0,0,0,1,0,0,0,0,0,0,0,0,0,0,0,1,0,0,0,0,0,0,0,0,0,0,0,0,0,0,0,0,0,0,0,0,0,0,0,0
3350,"Scheuchzerstrasse 65, 8006 Zürich",4.5,115,47.386165618896484,8.545210838317871,0.959497281287704,49.1,35.9,0.20327109876421595,1999,0,0,0,0,0,0,0,0,0,0,0,0,0,0,0,0,0,0,0,1,0,0,0,0,0,0,0,1,0,0,0,0,0,0,0,0,0,0,0,0,0,0,0,0,0,0,0,0,0,0,0
2150,"Letzigraben 165, 8047 Zürich",2.5,42,47.374027252197266,8.495600700378418,0.74434086766623,43.9,34.4,0.04027245421068823,2022,1,0,0,0,0,0,0,0,0,0,0,0,0,0,0,1,0,0,0,0,0,0,0,0,0,0,0,0,0,0,0,0,0,0,0,0,0,0,0,0,0,0,0,0,0,0,0,0,1,0,0
2690,"Magnusstrasse 4, 8004 Zürich",3.0,1,47.37936782836914,8.524557113647461,0.4785421126283225,37.3,31.5,0.13475761273692372,1999,0,0,1,0,0,0,0,0,0,0,0,0,0,0,0,0,1,0,0,0,0,0,0,0,0,0,0,1,0,0,0,0,0,0,0,0,0,0,0,0,0,0,0,0,0,0,0,0,0,0,0
12653,"Hohenbühlstrasse 5, 8032 Zürich",5.5,183,47.366111755371094,8.5518798828125,0.7694223450564688,41.0,35.2,0.15609867314775883,2004,0,0,0,0,0,0,0,0,0,0,0,0,0,0,0,0,0,0,0,0,0,1,0,0,0,0,0,0,0,0,0,1,0,0,0,0,0,0,0,0,0,0,0,0,0,0,0,0,0,0,0
2306,"Freiestrasse 23, 8032 Zürich",2.0,57,47.37215805053711,8.554027557373047,0.29922095916794206,45.3,32.2,0.30363626252349785,1999,0,0,0,0,0,0,0,0,0,0,0,0,0,0,1,0,0,0,0,0,0,0,0,0,0,0,0,1,0,0,0,0,0,0,0,0,0,0,0,0,0,0,0,0,0,0,0,0,0,0,0
2690,"Lessingstrasse 49, 8002 Zürich",3.0,60,47.355987548828125,8.524971961975098,0.635063506943348,56.4,51.3,0.17013328528806215,1999,0,0,0,0,0,0,0,0,0,0,0,0,0,0,0,0,1,0,0,0,0,0,0,0,0,0,0,1,0,0,0,0,0,0,0,0,0,0,0,0,0,0,0,0,0,0,0,0,0,0,0
4596,"Brandschenkestrasse 62, 8002 Zürich",3.5,108,47.36763000488281,8.528776168823242,1.3461510763014908,50.3,44.4,0.30260428168720926,2015,0,0,0,0,0,0,0,0,0,0,0,0,0,0,0,0,0,1,0,0,0,0,0,0,0,0,0,0,0,0,0,0,0,0,0,0,0,0,0,0,0,1,0,0,0,0,0,0,0,0,0
2590,"Waldschulweg 21, 8032 Zürich",2.0,56,47.363956451416016,8.572265625,0.7427949006819659,28.6,18.4,0.20747708980445204,2019,0,0,0,0,0,0,0,0,0,0,0,0,0,0,1,0,0,0,0,0,0,0,0,0,0,0,0,0,0,0,0,0,0,0,0,0,0,0,0,0,0,0,0,0,0,1,0,0,0,0,0
1375,"Kilchbergsteig 2, 8038 Zürich",2.0,51,47.343990325927734,8.532268524169922,0.9507929224316486,55.5,49.0,0.0743560403188195,1999,0,0,0,1,0,0,0,0,0,0,0,0,0,0,1,0,0,0,0,0,0,0,0,0,0,0,0,1,0,0,0,0,0,0,0,0,0,0,0,0,0,0,0,0,0,0,0,0,0,0,0
1550,"Kilchbergsteig 4, 8038 Zürich",2.0,55,47.343719482421875,8.532464981079102,0.9816539769405693,48.3,41.8,0.09123367267436805,1999,0,0,0,1,0,0,0,0,0,0,0,0,0,0,1,0,0,0,0,0,0,0,0,0,0,0,0,1,0,0,0,0,0,0,0,0,0,0,0,0,0,0,0,0,0,0,0,0,0,0,0
1992,"Kühriedweg 28, 8050 Zürich",2.5,60,47.409366607666016,8.557765007019043,0.8857956841231841,40.1,28.5,0.1784193488158938,1999,0,0,1,0,0,0,0,0,0,0,0,0,0,0,0,1,0,0,0,0,0,0,0,0,0,0,0,1,0,0,0,0,0,0,0,0,0,0,0,0,0,0,0,0,0,0,0,0,0,0,0
2570,"Eggbühlstrasse 9, 8050 Zürich",2.5,70,47.41616439819336,8.544422149658203,0.4204540390817376,57.2,44.3,0.09506563234119411,1999,0,0,0,0,0,0,0,0,0,0,0,0,0,0,0,1,0,0,0,0,0,0,0,0,0,0,0,1,0,0,0,0,0,0,0,0,0,0,0,0,0,0,0,0,0,0,0,0,0,0,0
3190,"Hardturmstrasse 104, 8005 Zürich",4.5,130,47.39273452758789,8.516100883483887,0.6600204974308448,58.1,51.5,0.09843428419681012,1999,0,0,0,0,0,0,0,0,0,0,0,0,0,0,0,0,0,0,0,1,0,0,0,0,0,0,0,1,0,0,0,0,0,0,0,0,0,0,0,0,0,0,0,0,0,0,0,0,0,0,0
1290,"Manessestrasse 128, 8045 Zürich",1.0,9,47.363555908203125,8.521917343139648,1.4296356320163017,58.2,52.9,0.09955820672423411,1999,0,0,0,0,0,0,0,0,0,0,0,0,1,0,0,0,0,0,0,0,0,0,0,0,0,0,0,1,0,0,0,0,0,0,0,0,0,0,0,0,0,0,0,0,0,0,0,0,0,0,0
2580,"Heinrichstrasse 83, 8005 Zürich",2.5,40,47.38484191894531,8.529532432556152,0.5863517086404678,55.7,46.3,0.2191681648128426,1999,0,0,0,0,0,0,0,0,0,1,0,0,0,0,0,1,0,0,0,0,0,0,0,0,0,0,0,1,0,0,0,0,0,0,0,0,0,0,0,0,0,0,0,0,0,0,0,0,0,0,0
3963,"Brinerstrasse 3, 8003 Zürich",3.5,80,47.36940383911133,8.518498420715332,1.473142150178376,50.1,43.4,0.09114632118830872,1999,0,1,0,0,0,0,0,0,0,0,0,0,0,0,0,0,0,1,0,0,0,0,0,0,0,0,0,1,0,0,0,0,0,0,0,0,0,0,0,0,0,0,0,0,0,0,0,0,0,0,0
1680,"Kilchbergsteig 4, 8038 Zürich",2.0,53,47.343719482421875,8.532464981079102,0.9816539769405693,48.3,41.8,0.09123367267436805,1999,0,0,0,1,0,0,0,0,0,0,0,0,0,0,1,0,0,0,0,0,0,0,0,0,0,0,0,1,0,0,0,0,0,0,0,0,0,0,0,0,0,0,0,0,0,0,0,0,0,0,0
2360,"Auhofstrasse 5, 8051 Zürich",3.5,84,47.4066276550293,8.56872844696045,1.762870008421359,46.0,35.0,0.05831221675750771,1999,0,0,0,0,1,0,0,0,0,0,0,0,0,0,0,0,0,1,0,0,0,0,0,0,0,0,0,1,0,0,0,0,0,0,0,0,0,0,0,0,0,0,0,0,0,0,0,0,0,0,0
3100,"Badenerstrasse 250, 8004 Zürich",2.5,46,47.3759880065918,8.516037940979004,1.1907982360838316,61.1,56.6,0.1275229402829901,2021,0,0,0,0,0,0,0,0,0,0,0,0,0,0,0,1,0,0,0,0,0,0,0,0,0,0,0,0,0,0,0,0,0,0,0,0,0,0,0,0,0,0,0,0,0,0,0,1,0,0,0
1730,"Friesenbergstrasse 108, 8055 Zürich",1.0,31,47.36572265625,8.509498596191406,0.8753404162344522,56.4,45.6,0.15427974242872974,1999,0,0,1,0,0,0,0,0,0,0,0,0,1,0,0,0,0,0,0,0,0,0,0,0,0,0,0,1,0,0,0,0,0,0,0,0,0,0,0,0,0,0,0,0,0,0,0,0,0,0,0
3310,"Allenmoosstrasse 60, 8057 Zürich",3.5,82,47.40371322631836,8.540075302124023,1.1523427767598782,27.5,20.8,0.29773630488049685,1999,0,1,0,0,0,0,0,0,0,0,0,0,0,0,0,0,0,1,0,0,0,0,0,0,0,0,0,1,0,0,0,0,0,0,0,0,0,0,0,0,0,0,0,0,0,0,0,0,0,0,0
1850,"Pestalozzistrasse 38, 8032 Zürich",1.0,33,47.37311935424805,8.555109977722168,0.26622025243345926,44.8,33.9,0.28056501522329297,2000,0,0,0,0,0,0,0,0,0,0,0,0,1,0,0,0,0,0,0,0,0,0,0,0,0,0,0,0,1,0,0,0,0,0,0,0,0,0,0,0,0,0,0,0,0,0,0,0,0,0,0
1890,"Brauerstrasse 27, 8004 Zürich",1.5,54,47.37741470336914,8.527472496032715,0.35829341822448396,51.8,42.3,0.1783707917580931,2014,0,0,0,0,0,0,0,0,0,0,0,0,0,1,0,0,0,0,0,0,0,0,0,0,0,0,0,0,0,0,0,0,0,0,0,0,0,0,0,0,1,0,0,0,0,0,0,0,0,0,0
3180,"Hagenholzstrasse 70, 8050 Zürich",3.5,109,47.4133415222168,8.556859016418457,0.7282838075723138,44.5,32.4,0.17561123012317356,2006,0,0,0,0,0,0,0,0,0,0,0,0,0,0,0,0,0,1,0,0,0,0,0,0,0,0,0,0,0,0,0,0,0,1,0,0,0,0,0,0,0,0,0,0,0,0,0,0,0,0,0
2890,"Schaffhauserstrasse 453, 8052 Zürich",2.5,51,47.41804122924805,8.5462007522583,0.5782917568020463,63.8,52.7,0.15893969669505145,1999,0,0,0,0,1,0,0,0,1,0,0,0,0,0,0,1,0,0,0,0,0,0,0,0,0,0,0,1,0,0,0,0,0,0,0,0,0,0,0,0,0,0,0,0,0,0,0,0,0,0,0
2535,"Winzerhalde 109, 8049 Zürich",2.5,69,47.40351104736328,8.482901573181152,2.8245811396259377,37.4,28.9,0.2382991901232995,1999,0,0,0,0,0,0,0,0,0,0,0,0,0,0,0,1,0,0,0,0,0,0,0,0,0,0,0,1,0,0,0,0,0,0,0,0,0,0,0,0,0,0,0,0,0,0,0,0,0,0,0
3160,"Allenmoosstrasse 50, 8057 Zürich",2.5,73,47.40336227416992,8.539020538330078,1.224940532381789,32.6,26.0,0.29670424373611737,0,0,1,0,0,0,0,0,0,0,0,0,0,0,0,0,1,0,0,0,0,0,0,0,0,0,0,1,0,0,0,0,0,0,0,0,0,0,0,0,0,0,0,0,0,0,0,0,0,0,0,0
3104,"Binzmühlestrasse 48, 8050 Zurich",2.0,36,47.41407012939453,8.545011520385742,0.21114030692683755,39.9,30.5,0.1142062416781681,0,0,0,0,0,0,0,0,0,0,0,0,0,0,0,1,0,0,0,0,0,0,0,0,0,0,0,1,0,0,0,0,0,0,0,0,0,0,0,0,0,0,0,0,0,0,0,0,0,0,0,0
3415,"Binzmühlestrasse 48, 8050 Zurich",3.0,60,47.41407012939453,8.545011520385742,0.21114030692683755,39.9,30.5,0.1142062416781681,0,0,0,0,0,0,0,0,0,0,0,0,0,0,0,0,0,1,0,0,0,0,0,0,0,0,0,1,0,0,0,0,0,0,0,0,0,0,0,0,0,0,0,0,0,0,0,0,0,0,0,0
4349,"Gerechtigkeitsgasse 8, 8001 Zurich",1.0,36,47.3698616027832,8.531909942626953,1.0911422118369956,54.0,45.0,0.09042990818923455,0,0,0,0,0,0,0,0,0,0,0,0,0,1,0,0,0,0,0,0,0,0,0,0,0,0,0,1,0,0,0,0,0,0,0,0,0,0,0,0,0,0,0,0,0,0,0,0,0,0,0,0
2170,"Binzmühlestrasse 46, 8050 Zurich",2.0,22,47.41405487060547,8.545209884643555,0.19858002359194027,61.7,51.4,0.10285542022863524,0,0,0,0,0,0,0,0,0,0,0,0,0,0,0,1,0,0,0,0,0,0,0,0,0,0,0,1,0,0,0,0,0,0,0,0,0,0,0,0,0,0,0,0,0,0,0,0,0,0,0,0
2689,"Freyastrasse 8, 8004 Zurich",1.0,28,47.37194061279297,8.524578094482422,0.9805694459300394,44.1,38.2,0.060817697658641826,0,0,0,0,0,0,0,0,0,0,0,0,0,1,0,0,0,0,0,0,0,0,0,0,0,0,0,1,0,0,0,0,0,0,0,0,0,0,0,0,0,0,0,0,0,0,0,0,0,0,0,0
3000,"Freyastrasse 8, 8004 Zurich",1.0,33,47.37194061279297,8.524578094482422,0.9805694459300394,44.1,38.2,0.060817697658641826,0,0,0,0,0,0,0,0,0,0,0,0,0,1,0,0,0,0,0,0,0,0,0,0,0,0,0,1,0,0,0,0,0,0,0,0,0,0,0,0,0,0,0,0,0,0,0,0,0,0,0,0
3000,"Rotachstrasse 33, 8003 Zurich",1.0,24,47.370792388916016,8.514747619628906,1.296711143445745,62.3,55.6,0.08708606678325438,0,0,0,0,0,0,0,0,0,0,0,0,0,1,0,0,0,0,0,0,0,0,0,0,0,0,0,1,0,0,0,0,0,0,0,0,0,0,0,0,0,0,0,0,0,0,0,0,0,0,0,0
2585,"Binzmühlestrasse 46, 8050 Zurich",1.0,23,47.41405487060547,8.545209884643555,0.19858002359194027,61.7,51.4,0.10285542022863524,0,0,0,0,0,0,0,0,0,0,0,0,0,1,0,0,0,0,0,0,0,0,0,0,0,0,0,1,0,0,0,0,0,0,0,0,0,0,0,0,0,0,0,0,0,0,0,0,0,0,0,0
6332,"Bellariastrasse 36, 8002 Zurich",2.0,86,47.352561950683594,8.530229568481445,0.1096146415024229,45.1,36.6,0.1792287145629656,0,0,0,0,0,0,0,0,0,0,0,0,0,0,0,1,0,0,0,0,0,0,0,0,0,0,0,1,0,0,0,0,0,0,0,0,0,0,0,0,0,0,0,0,0,0,0,0,0,0,0,0
2896,"Freyastrasse 8, 8004 Zurich",1.0,33,47.37194061279297,8.524578094482422,0.9805694459300394,44.1,38.2,0.060817697658641826,0,0,0,0,0,0,0,0,0,0,0,0,0,1,0,0,0,0,0,0,0,0,0,0,0,0,0,1,0,0,0,0,0,0,0,0,0,0,0,0,0,0,0,0,0,0,0,0,0,0,0,0
3830,"Militärstrasse 24, 8004 Zurich",1.0,30,47.37691116333008,8.532596588134766,0.33033946505310613,40.4,34.8,0.1513333244101828,0,0,0,0,0,0,0,0,0,0,0,0,0,1,0,0,0,0,0,0,0,0,0,0,0,0,0,1,0,0,0,0,0,0,0,0,0,0,0,0,0,0,0,0,0,0,0,0,0,0,0,0
3104,"Bellariastrasse 36, 8002 Zurich",1.0,31,47.352561950683594,8.530229568481445,0.1096146415024229,45.1,36.6,0.1792287145629656,0,0,0,0,0,0,0,0,0,0,0,0,0,1,0,0,0,0,0,0,0,0,0,0,0,0,0,1,0,0,0,0,0,0,0,0,0,0,0,0,0,0,0,0,0,0,0,0,0,0,0,0
4453,"Militärstrasse 24, 8004 Zurich",1.0,41,47.37691116333008,8.532596588134766,0.33033946505310613,40.4,34.8,0.1513333244101828,0,0,0,0,0,0,0,0,0,0,0,0,0,1,0,0,0,0,0,0,0,0,0,0,0,0,0,1,0,0,0,0,0,0,0,0,0,0,0,0,0,0,0,0,0,0,0,0,0,0,0,0
2585,"Freyastrasse 8, 8004 Zurich",1.0,28,47.37194061279297,8.524578094482422,0.9805694459300394,44.1,38.2,0.060817697658641826,0,0,0,0,0,0,0,0,0,0,0,0,0,1,0,0,0,0,0,0,0,0,0,0,0,0,0,1,0,0,0,0,0,0,0,0,0,0,0,0,0,0,0,0,0,0,0,0,0,0,0,0
2793,"Militärstrasse 24, 8004 Zurich",1.0,24,47.37691116333008,8.532596588134766,0.33033946505310613,40.4,34.8,0.1513333244101828,0,0,0,0,0,0,0,0,0,0,0,0,0,1,0,0,0,0,0,0,0,0,0,0,0,0,0,1,0,0,0,0,0,0,0,0,0,0,0,0,0,0,0,0,0,0,0,0,0,0,0,0
2170,"Militärstrasse 24, 8004 Zurich",1.0,15,47.37691116333008,8.532596588134766,0.33033946505310613,40.4,34.8,0.1513333244101828,0,0,0,0,0,0,0,0,0,0,0,0,0,1,0,0,0,0,0,0,0,0,0,0,0,0,0,1,0,0,0,0,0,0,0,0,0,0,0,0,0,0,0,0,0,0,0,0,0,0,0,0
4246,"Militärstrasse 24, 8004 Zurich",2.0,43,47.37691116333008,8.532596588134766,0.33033946505310613,40.4,34.8,0.1513333244101828,0,0,0,0,0,0,0,0,0,0,0,0,0,0,0,1,0,0,0,0,0,0,0,0,0,0,0,1,0,0,0,0,0,0,0,0,0,0,0,0,0,0,0,0,0,0,0,0,0,0,0,0
1962,"Binzmühlestrasse 50, 8050 Zurich",1.0,22,47.41405487060547,8.544820785522461,0.22153377694543547,39.6,30.4,0.12369977486234897,0,0,0,0,0,0,0,0,0,0,0,0,0,1,0,0,0,0,0,0,0,0,0,0,0,0,0,1,0,0,0,0,0,0,0,0,0,0,0,0,0,0,0,0,0,0,0,0,0,0,0,0
3104,"Gerechtigkeitsgasse 8, 8001 Zurich",1.0,24,47.3698616027832,8.531909942626953,1.0911422118369956,54.0,45.0,0.09042990818923455,0,0,0,0,0,0,0,0,0,0,0,0,0,1,0,0,0,0,0,0,0,0,0,0,0,0,0,1,0,0,0,0,0,0,0,0,0,0,0,0,0,0,0,0,0,0,0,0,0,0,0,0
4246,"Gerechtigkeitsgasse 8, 8001 Zurich",1.0,36,47.3698616027832,8.531909942626953,1.0911422118369956,54.0,45.0,0.09042990818923455,0,0,0,0,0,0,0,0,0,0,0,0,0,1,0,0,0,0,0,0,0,0,0,0,0,0,0,1,0,0,0,0,0,0,0,0,0,0,0,0,0,0,0,0,0,0,0,0,0,0,0,0
5076,"Gerechtigkeitsgasse 8, 8001 Zurich",2.0,46,47.3698616027832,8.531909942626953,1.0911422118369956,54.0,45.0,0.09042990818923455,0,0,0,0,0,0,0,0,0,0,0,0,0,0,0,1,0,0,0,0,0,0,0,0,0,0,0,1,0,0,0,0,0,0,0,0,0,0,0,0,0,0,0,0,0,0,0,0,0,0,0,0
3104,"Waffenplatzstrasse 72, 8002 Zurich",1.0,38,47.35688018798828,8.526817321777344,0.6067837976249912,52.9,44.6,0.18504381927046815,0,0,0,0,0,0,0,0,0,0,0,0,0,1,0,0,0,0,0,0,0,0,0,0,0,0,0,1,0,0,0,0,0,0,0,0,0,0,0,0,0,0,0,0,0,0,0,0,0,0,0,0
3415,"Gerechtigkeitsgasse 8, 8001 Zurich",1.0,30,47.3698616027832,8.531909942626953,1.0911422118369956,54.0,45.0,0.09042990818923455,0,0,0,0,0,0,0,0,0,0,0,0,0,1,0,0,0,0,0,0,0,0,0,0,0,0,0,1,0,0,0,0,0,0,0,0,0,0,0,0,0,0,0,0,0,0,0,0,0,0,0,0
2377,"Waffenplatzstrasse 72, 8002 Zurich",1.0,20,47.35688018798828,8.526817321777344,0.6067837976249912,52.9,44.6,0.18504381927046815,0,0,0,0,0,0,0,0,0,0,0,0,0,1,0,0,0,0,0,0,0,0,0,0,0,0,0,1,0,0,0,0,0,0,0,0,0,0,0,0,0,0,0,0,0,0,0,0,0,0,0,0
2066,"Waffenplatzstrasse 72, 8002 Zurich",1.0,12,47.35688018798828,8.526817321777344,0.6067837976249912,52.9,44.6,0.18504381927046815,0,0,0,0,0,0,0,0,0,0,0,0,0,1,0,0,0,0,0,0,0,0,0,0,0,0,0,1,0,0,0,0,0,0,0,0,0,0,0,0,0,0,0,0,0,0,0,0,0,0,0,0
1962,"Binzmühlestrasse 48, 8050 Zurich",1.0,17,47.41407012939453,8.545011520385742,0.21114030692683755,39.9,30.5,0.1142062416781681,0,0,0,0,0,0,0,0,0,0,0,0,0,1,0,0,0,0,0,0,0,0,0,0,0,0,0,1,0,0,0,0,0,0,0,0,0,0,0,0,0,0,0,0,0,0,0,0,0,0,0,0
3208,"Binzmühlestrasse 48, 8050 Zurich",1.0,36,47.41407012939453,8.545011520385742,0.21114030692683755,39.9,30.5,0.1142062416781681,0,0,0,0,0,0,0,0,0,0,0,0,0,1,0,0,0,0,0,0,0,0,0,0,0,0,0,1,0,0,0,0,0,0,0,0,0,0,0,0,0,0,0,0,0,0,0,0,0,0,0,0
1962,"Binzmühlestrasse 46, 8050 Zurich",1.0,15,47.41405487060547,8.545209884643555,0.19858002359194027,61.7,51.4,0.10285542022863524,0,0,0,0,0,0,0,0,0,0,0,0,0,1,0,0,0,0,0,0,0,0,0,0,0,0,0,1,0,0,0,0,0,0,0,0,0,0,0,0,0,0,0,0,0,0,0,0,0,0,0,0
2481,"Binzmühlestrasse 46, 8050 Zurich",1.0,22,47.41405487060547,8.545209884643555,0.19858002359194027,61.7,51.4,0.10285542022863524,0,0,0,0,0,0,0,0,0,0,0,0,0,1,0,0,0,0,0,0,0,0,0,0,0,0,0,1,0,0,0,0,0,0,0,0,0,0,0,0,0,0,0,0,0,0,0,0,0,0,0,0
1990,"Hönggerstrasse 24, 8037 Zürich",1.0,34,47.39155960083008,8.525900840759277,0.8752942928256728,55.7,48.6,0.20832220556122708,0,0,0,0,0,0,0,0,0,0,0,0,0,1,0,0,0,0,0,0,0,0,0,0,0,0,0,1,0,0,0,0,0,0,0,0,0,0,0,0,0,0,0,0,0,0,0,0,0,0,0,0
2850,"Hönggerstrasse 24, 8037 Zürich",2.5,59,47.39155960083008,8.525900840759277,0.8752942928256728,55.7,48.6,0.20832220556122708,0,0,0,0,0,0,0,0,0,0,0,0,0,0,0,0,1,0,0,0,0,0,0,0,0,0,0,1,0,0,0,0,0,0,0,0,0,0,0,0,0,0,0,0,0,0,0,0,0,0,0,0
2481,"Albertstrasse 7, 8005 Zürich",1.0,22,47.38615798950195,8.526005744934082,0.811982484071824,36.0,28.9,0.2527420202938254,1999,0,0,0,0,0,0,0,0,0,0,0,0,1,0,0,0,0,0,0,0,0,0,0,0,0,0,0,1,0,0,0,0,0,0,0,0,0,0,0,0,0,0,0,0,0,0,0,0,0,0,0
5273,"Bellariastrasse 36, 8002 Zurich",1.0,66,47.352561950683594,8.530229568481445,0.1096146415024229,45.1,36.6,0.1792287145629656,0,0,0,0,0,0,0,0,0,0,0,0,0,1,0,0,0,0,0,0,0,0,0,0,0,0,0,1,0,0,0,0,0,0,0,0,0,0,0,0,0,0,0,0,0,0,0,0,0,0,0,0
3519,"Waffenplatzstrasse 72, 8002 Zurich",1.0,50,47.35688018798828,8.526817321777344,0.6067837976249912,52.9,44.6,0.18504381927046815,0,0,0,0,0,0,0,0,0,0,0,0,0,1,0,0,0,0,0,0,0,0,0,0,0,0,0,1,0,0,0,0,0,0,0,0,0,0,0,0,0,0,0,0,0,0,0,0,0,0,0,0
3845,"Rosengartenstrasse 55, 8037 Zürich",3.5,71,47.3958854675293,8.529154777526855,0.687731734941458,44.0,38.1,0.22657053267496036,1999,1,0,1,0,0,0,0,0,0,0,0,0,0,0,0,0,0,1,0,0,0,0,0,0,0,0,0,1,0,0,0,0,0,0,0,0,0,0,0,0,0,0,0,0,0,0,0,0,0,0,0
3385,"Rosengartenstrasse 55, 8037 Zürich",2.5,58,47.3958854675293,8.529154777526855,0.687731734941458,44.0,38.1,0.22657053267496036,1999,1,0,0,0,0,0,0,0,0,0,0,0,0,0,0,1,0,0,0,0,0,0,0,0,0,0,0,1,0,0,0,0,0,0,0,0,0,0,0,0,0,0,0,0,0,0,0,0,0,0,0
2985,"Seefeldstrasse 45, 8008 Zürich",2.0,50,47.362823486328125,8.550314903259277,0.529871900629706,60.2,50.3,0.056988429759772655,0,1,1,0,1,1,0,0,0,1,1,0,0,0,0,1,0,0,0,0,0,0,0,0,0,0,0,1,0,0,0,0,0,0,0,0,0,0,0,0,0,0,0,0,0,0,0,0,0,0,0,0
5890,"Geranienstrasse 14, 8008 Zürich",2.5,75,47.35520935058594,8.55871868133545,0.24352284513770966,40.1,28.3,0.13721982646266973,1999,0,0,0,0,0,0,0,0,0,0,0,0,0,0,0,1,0,0,0,0,0,0,0,0,0,0,0,1,0,0,0,0,0,0,0,0,0,0,0,0,0,0,0,0,0,0,0,0,0,0,0
6790,"Baurstrasse 29, 8008 Zürich",2.5,60,47.35592269897461,8.554497718811035,0.4611984961753359,47.5,36.5,0.2311963427125411,1999,0,0,0,0,0,0,0,0,0,0,0,0,0,0,0,1,0,0,0,0,0,0,0,0,0,0,0,1,0,0,0,0,0,0,0,0,0,0,0,0,0,0,0,0,0,0,0,0,0,0,0
3600,"Rotachstrasse 22, 8003 Zürich",2.5,65,47.37027359008789,8.515972137451172,1.5331529079750814,51.7,45.4,0.1370878346478418,1999,0,0,0,0,1,0,0,0,0,0,0,0,0,0,0,1,0,0,0,0,0,0,0,0,0,0,0,1,0,0,0,0,0,0,0,0,0,0,0,0,0,0,0,0,0,0,0,0,0,0,0
1869,"Ankerstrasse 116, 8004 Zürich",2.5,43,47.37643051147461,8.52841567993164,0.40393714647435286,64.3,57.3,0.20236772424049193,1999,0,0,0,0,0,0,0,0,0,0,0,0,0,0,0,1,0,0,0,0,0,0,0,0,0,0,0,1,0,0,0,0,0,0,0,0,0,0,0,0,0,0,0,0,0,0,0,0,0,0,0
5900,"Im Langwil 2, 8044 Dübendorf",5.5,170,47.38320541381836,8.592612266540527,1.9686115091591987,63.4,53.2,0.5306924296621865,0,0,0,0,0,0,0,1,0,0,0,0,0,0,0,0,0,0,0,0,0,0,1,0,0,0,0,1,0,0,0,0,0,0,0,0,0,0,0,0,0,0,0,0,0,0,0,0,0,0,0,0
3990,"Freilagerstrasse 27, 8047 Zürich",1.0,136,47.37895202636719,8.491239547729492,1.3699848839945743,52.6,39.9,0.2933578253094001,2021,0,0,0,0,0,0,0,0,0,0,0,0,1,0,0,0,0,0,0,0,0,0,0,0,0,0,0,0,0,0,0,0,0,0,0,0,0,0,0,0,0,0,0,0,0,0,0,1,0,0,0
2854,"Kirchgasse 33, 8001 Zürich",2.0,42,47.37071228027344,8.54624080657959,0.6874299631178465,48.5,42.8,0.2440338234606067,1999,0,0,0,0,0,0,0,1,0,0,0,0,0,0,1,0,0,0,0,0,0,0,0,0,0,0,0,1,0,0,0,0,0,0,0,0,0,0,0,0,0,0,0,0,0,0,0,0,0,0,0
1770,"Zielweg 80, 8055 Zürich",1.0,24,47.35865783691406,8.498133659362793,0.8231762435113414,22.3,0.0,0.044888163001052014,1999,0,0,0,0,0,0,0,0,0,0,0,0,1,0,0,0,0,0,0,0,0,0,0,0,0,0,0,1,0,0,0,0,0,0,0,0,0,0,0,0,0,0,0,0,0,0,0,0,0,0,0
2792,"Militärstrasse 24, 8004 Zurich",1.0,21,47.37691116333008,8.532596588134766,0.33033946505310613,40.4,34.8,0.1513333244101828,0,0,0,0,0,0,0,0,0,0,0,0,0,1,0,0,0,0,0,0,0,0,0,0,0,0,0,1,0,0,0,0,0,0,0,0,0,0,0,0,0,0,0,0,0,0,0,0,0,0,0,0
2900,"Badenerstrasse 129, 8004 Zürich",2.5,66,47.374176025390625,8.52323055267334,0.8390344152296854,41.9,37.1,0.08607566464116338,1999,0,0,0,0,0,0,0,0,0,0,0,0,0,0,0,1,0,0,0,0,0,0,0,0,0,0,0,1,0,0,0,0,0,0,0,0,0,0,0,0,0,0,0,0,0,0,0,0,0,0,0
5600,"Freudenbergstrasse 15, 8044 Zürich",3.5,123,47.38038635253906,8.55915355682373,0.6652025859870317,41.4,29.9,0.14485423681722973,1999,0,0,0,0,0,0,0,0,0,0,0,0,0,0,0,0,0,1,0,0,0,0,0,0,0,0,0,1,0,0,0,0,0,0,0,0,0,0,0,0,0,0,0,0,0,0,0,0,0,0,0
3550,"Haldenstrasse 167, 8055 Zürich",3.5,84,47.370262145996094,8.511372566223145,1.0362377768438866,45.6,39.0,0.13458751131764926,1999,0,0,0,0,0,0,0,0,0,0,0,0,0,0,0,0,0,1,0,0,0,0,0,0,0,0,0,1,0,0,0,0,0,0,0,0,0,0,0,0,0,0,0,0,0,0,0,0,0,0,0
4500,"Rotachstrasse 22, 8003 Zürich",3.5,85,47.37027359008789,8.515972137451172,1.5331529079750814,51.7,45.4,0.1370878346478418,1999,0,0,0,0,0,0,0,0,0,0,0,0,0,0,0,0,0,1,0,0,0,0,0,0,0,0,0,1,0,0,0,0,0,0,0,0,0,0,0,0,0,0,0,0,0,0,0,0,0,0,0
4490,"Winzerstrasse 65, 8049 Zürich",4.5,102,47.40151596069336,8.489461898803711,2.2980919339107597,44.4,35.8,0.05919077174377475,1999,0,0,0,0,0,0,1,0,0,0,0,0,0,0,0,0,0,0,0,1,0,0,0,0,0,0,0,1,0,0,0,0,0,0,0,0,0,0,0,0,0,0,0,0,0,0,0,0,0,0,0
3350,"Limmattalstrasse 122, 8049 Zürich",3.5,95,47.40016174316406,8.50429630279541,1.1723527454378604,60.1,53.6,0.06136603695228159,1999,0,0,0,0,1,0,0,0,0,0,0,0,0,0,0,0,0,1,0,0,0,0,0,0,0,0,0,1,0,0,0,0,0,0,0,0,0,0,0,0,0,0,0,0,0,0,0,0,0,0,0
2950,"Badenerstrasse 701, 8048 Zürich",2.5,61,47.387939453125,8.483872413635254,2.598745031969991,48.1,42.1,0.12604855251114394,1999,0,0,0,0,0,0,0,0,0,0,0,0,0,0,0,1,0,0,0,0,0,0,0,0,0,0,0,1,0,0,0,0,0,0,0,0,0,0,0,0,0,0,0,0,0,0,0,0,0,0,0
2285,"Hungerbergstrasse 17, 8046 Zürich",2.0,52,47.41977310180664,8.500655174255371,2.7922974830805702,41.8,34.5,0.16066224118947367,1999,0,0,0,0,1,0,0,0,0,0,0,1,0,0,1,0,0,0,0,0,0,0,0,0,0,0,0,1,0,0,0,0,0,0,0,0,0,0,0,0,0,0,0,0,0,0,0,0,0,0,0
2685,"Georg-Kempf-Strasse 20, 8046 Zürich",4.5,85,47.422119140625,8.497133255004883,3.1533056060549347,50.9,43.0,0.1911692089219451,1999,0,0,0,1,1,0,0,0,0,0,0,0,0,0,0,0,0,0,0,1,0,0,0,0,0,0,0,1,0,0,0,0,0,0,0,0,0,0,0,0,0,0,0,0,0,0,0,0,0,0,0
2340,"Birmensdorferstrasse 591, 8055 Zürich",2.5,36,47.367523193359375,8.488636016845703,0.5418773494371935,47.5,40.9,0.09185827471834848,2020,0,1,0,0,0,0,0,0,0,0,0,0,0,0,0,1,0,0,0,0,0,0,0,0,0,0,0,0,0,0,0,0,0,0,0,0,0,0,0,0,0,0,0,0,0,0,1,0,0,0,0
2890,"Birmensdorferstrasse 591, 8055 Zürich",2.5,52,47.367523193359375,8.488636016845703,0.5418773494371935,47.5,40.9,0.09185827471834848,2020,0,0,0,0,0,0,0,0,0,0,0,0,0,0,0,1,0,0,0,0,0,0,0,0,0,0,0,0,0,0,0,0,0,0,0,0,0,0,0,0,0,0,0,0,0,0,1,0,0,0,0
3350,"Haldenstrasse 63, 8045 Zürich",3.5,95,47.36482238769531,8.516528129577637,1.4137333934709224,38.8,29.9,0.2468148812635627,1999,0,0,0,0,0,0,0,0,0,0,0,0,0,0,0,0,0,1,0,0,0,0,0,0,0,0,0,1,0,0,0,0,0,0,0,0,0,0,0,0,0,0,0,0,0,0,0,0,0,0,0
2300,"Sihlweidstrasse 56, 8041 Zürich",4.5,90,47.32688522338867,8.518268585205078,3.025636345702509,48.4,42.5,0.2768562860874177,1999,0,0,0,0,0,0,0,0,0,0,0,0,0,0,0,0,0,0,0,1,0,0,0,0,0,0,0,1,0,0,0,0,0,0,0,0,0,0,0,0,0,0,0,0,0,0,0,0,0,0,0
4202,"Hirschengraben 20, 8001 Zürich",2.5,87,47.37071990966797,8.5472412109375,0.6670955711287542,56.2,50.5,0.1465293131959548,1999,0,0,0,0,0,0,0,0,0,0,1,0,0,0,0,1,0,0,0,0,0,0,0,0,0,0,0,1,0,0,0,0,0,0,0,0,0,0,0,0,0,0,0,0,0,0,0,0,0,0,0
4050,"Kochstrasse 19, 8004 Zürich",3.5,95,47.3780403137207,8.51494312286377,1.2146736533906934,36.0,29.8,0.1742503635384208,1999,0,0,0,0,0,0,0,0,0,0,0,0,0,0,0,0,0,1,0,0,0,0,0,0,0,0,0,1,0,0,0,0,0,0,0,0,0,0,0,0,0,0,0,0,0,0,0,0,0,0,0
2250,"Schulhausstrasse 50, 8002 Zürich",3.5,101,47.36094284057617,8.52709674835205,0.9970541315278766,41.9,35.2,0.09187929686089896,1999,0,0,0,0,0,0,0,0,0,0,0,0,0,0,0,0,0,1,0,0,0,0,0,0,0,0,0,1,0,0,0,0,0,0,0,0,0,0,0,0,0,0,0,0,0,0,0,0,0,0,0
2249,"Michelstrasse 17, 8049 Zürich",2.0,45,47.40563201904297,8.494258880615234,2.0791304999036244,41.9,31.8,0.08188511717425723,1999,0,0,0,0,0,0,0,0,0,0,0,0,0,0,1,0,0,0,0,0,0,0,0,0,0,0,0,1,0,0,0,0,0,0,0,0,0,0,0,0,0,0,0,0,0,0,0,0,0,0,0
5470,"Wartauweg 19, 8049 Zürich",3.5,88,47.40304183959961,8.49215316772461,2.1349610207013243,53.6,43.9,0.04134169284429025,1999,0,1,0,0,0,0,0,0,0,0,0,0,0,0,0,0,0,1,0,0,0,0,0,0,0,0,0,1,0,0,0,0,0,0,0,0,0,0,0,0,0,0,0,0,0,0,0,0,0,0,0
4920,"Limmattalstrasse 266, 8049 Zürich",4.5,97,47.403141021728516,8.491690635681152,2.171430294933805,54.4,44.7,0.045308226327374,1999,0,1,0,0,0,0,0,0,0,0,0,0,0,0,0,0,0,0,0,1,0,0,0,0,0,0,0,1,0,0,0,0,0,0,0,0,0,0,0,0,0,0,0,0,0,0,0,0,0,0,0
2650,"Schaffhauserstrasse 137, 8057 Zürich",1.5,30,47.39736557006836,8.540963172912598,1.7884579616693528,60.0,50.9,0.0764530688256149,0,0,0,0,0,0,0,0,0,0,0,0,0,0,1,0,0,0,0,0,0,0,0,0,0,0,0,1,0,0,0,0,0,0,0,0,0,0,0,0,0,0,0,0,0,0,0,0,0,0,0,0
2500,"Winzerstrasse 65, 8049 Zürich",2.0,31,47.40151596069336,8.489461898803711,2.2980919339107597,44.4,35.8,0.05919077174377475,1999,0,0,0,0,0,0,0,0,0,0,1,0,0,0,1,0,0,0,0,0,0,0,0,0,0,0,0,1,0,0,0,0,0,0,0,0,0,0,0,0,0,0,0,0,0,0,0,0,0,0,0
2271,"Imbisbühlstrasse 4, 8049 Zürich",2.5,65,47.40272521972656,8.495156288146973,1.907532273197051,49.8,40.6,0.1211623495456417,1999,0,0,1,0,0,0,0,0,0,0,0,0,0,0,0,1,0,0,0,0,0,0,0,0,0,0,0,1,0,0,0,0,0,0,0,0,0,0,0,0,0,0,0,0,0,0,0,0,0,0,0
3080,"Morgartenstrasse 15, 8004 Zürich",1.0,29,47.37115478515625,8.528804779052734,0.9577592387473817,40.7,35.5,0.2544782135158701,2016,0,0,0,0,0,0,0,0,0,0,0,0,1,0,0,0,0,0,0,0,0,0,0,0,0,0,0,0,0,0,0,0,0,0,0,0,0,0,0,0,0,0,1,0,0,0,0,0,0,0,0
3400,"Badenerstrasse 362, 8004 Zürich",3.5,70,47.37889099121094,8.509330749511719,1.5124614256244802,41.0,36.1,0.10998152757057159,0,0,0,0,0,0,0,0,0,0,0,0,0,0,0,0,0,0,1,0,0,0,0,0,0,0,0,1,0,0,0,0,0,0,0,0,0,0,0,0,0,0,0,0,0,0,0,0,0,0,0,0
2850,"Franklinstrasse 12, 8050 Zürich",1.0,26,47.4093017578125,8.54517650604248,0.4266507687575426,56.6,49.0,0.11658792444459173,2013,0,0,0,0,1,0,0,0,0,0,0,0,1,0,0,0,0,0,0,0,0,0,0,0,0,0,0,0,0,0,0,0,0,0,0,0,0,0,0,1,0,0,0,0,0,0,0,0,0,0,0
1650,"Gubelstrasse 64, 8050 Zürich",1.0,15,47.40947723388672,8.54086685180664,0.6090837714337353,54.1,47.0,0.14013587338229003,2023,0,0,0,0,0,0,0,0,0,0,0,0,1,0,0,0,0,0,0,0,0,0,0,0,0,0,0,0,0,0,0,0,0,0,0,0,0,0,0,0,0,0,0,0,0,0,0,0,0,1,0
2880,"Gubelstrasse 64, 8050 Zürich",2.5,60,47.40947723388672,8.54086685180664,0.6090837714337353,54.1,47.0,0.14013587338229003,2023,0,0,0,0,0,0,0,0,0,0,0,0,0,0,0,1,0,0,0,0,0,0,0,0,0,0,0,0,0,0,0,0,0,0,0,0,0,0,0,0,0,0,0,0,0,0,0,0,0,1,0
1980,"Schaffhauserstrasse 137, 8057 Zürich",1.0,20,47.39736557006836,8.540963172912598,1.7884579616693528,60.0,50.9,0.0764530688256149,0,0,0,0,0,0,0,0,0,0,0,0,0,1,0,0,0,0,0,0,0,0,0,0,0,0,0,1,0,0,0,0,0,0,0,0,0,0,0,0,0,0,0,0,0,0,0,0,0,0,0,0
3100,"Zelgstrasse 19, 8003 Zürich",2.0,60,47.36765670776367,8.521907806396484,1.4956782617556228,50.7,45.3,0.08137174117335033,1999,0,0,0,0,0,0,0,0,0,0,0,0,0,0,1,0,0,0,0,0,0,0,0,0,0,0,0,1,0,0,0,0,0,0,0,0,0,0,0,0,0,0,0,0,0,0,0,0,0,0,0
2700,"Asylstrasse 125, 8032 Zürich",2.5,60,47.36527633666992,8.564931869506836,0.23603673921346766,61.5,55.4,0.17270255782181135,1999,0,0,0,0,0,0,0,0,0,0,0,0,0,0,0,1,0,0,0,0,0,0,0,0,0,0,0,1,0,0,0,0,0,0,0,0,0,0,0,0,0,0,0,0,0,0,0,0,0,0,0
3400,"Friesstrasse 12, 8050 Zürich",3.0,70,47.41431427001953,8.546905517578125,0.16050327481191706,57.1,48.6,0.12408347424372161,2009,0,0,0,0,0,0,0,0,0,0,0,0,0,0,0,0,1,0,0,0,0,0,0,0,0,0,0,0,0,0,0,0,0,0,0,1,0,0,0,0,0,0,0,0,0,0,0,0,0,0,0
2750,"Friesstrasse 12, 8050 Zürich",2.5,40,47.41431427001953,8.546905517578125,0.16050327481191706,57.1,48.6,0.12408347424372161,2009,0,0,0,0,0,0,0,0,0,0,0,0,0,0,0,1,0,0,0,0,0,0,0,0,0,0,0,0,0,0,0,0,0,0,0,1,0,0,0,0,0,0,0,0,0,0,0,0,0,0,0
2390,"Asylstrasse 125, 8032 Zürich",2.5,40,47.36527633666992,8.564931869506836,0.23603673921346766,61.5,55.4,0.17270255782181135,1999,0,0,0,0,0,0,0,0,0,0,0,0,0,0,0,1,0,0,0,0,0,0,0,0,0,0,0,1,0,0,0,0,0,0,0,0,0,0,0,0,0,0,0,0,0,0,0,0,0,0,0
3490,"Zelgstrasse 19, 8003 Zürich",3.0,45,47.36765670776367,8.521907806396484,1.4956782617556228,50.7,45.3,0.08137174117335033,1999,1,0,0,0,0,0,0,0,0,0,0,0,0,0,0,0,1,0,0,0,0,0,0,0,0,0,0,1,0,0,0,0,0,0,0,0,0,0,0,0,0,0,0,0,0,0,0,0,0,0,0
3619,"Regensbergstrasse 85, 8050 Zürich",3.5,82,47.405601501464844,8.54907512664795,0.8220420939424642,53.4,43.2,0.0696736924095602,1999,0,0,0,0,0,0,0,1,0,0,0,0,0,0,0,0,0,1,0,0,0,0,0,0,0,0,0,1,0,0,0,0,0,0,0,0,0,0,0,0,0,0,0,0,0,0,0,0,0,0,0
5954,"Sonneggstrasse 4, 8006 Zürich",5.0,144,47.3785400390625,8.547758102416992,0.2383203953073737,47.4,39.6,0.14330483237276082,1999,0,0,0,0,0,0,0,0,0,0,0,0,0,0,0,0,0,0,0,0,1,0,0,0,0,0,0,1,0,0,0,0,0,0,0,0,0,0,0,0,0,0,0,0,0,0,0,0,0,0,0
1250,"Ekkehardstrasse 32, 8006 Zürich",1.0,29,47.38648223876953,8.544576644897461,1.0124789191263703,39.5,28.3,0.15248003014940623,1999,0,0,0,0,0,0,0,0,0,0,0,0,1,0,0,0,0,0,0,0,0,0,0,0,0,0,0,1,0,0,0,0,0,0,0,0,0,0,0,0,0,0,0,0,0,0,0,0,0,0,0
4490,"Turbinenstrasse40, 8005 Zürich",3.5,100,47.38835906982422,8.514805793762207,1.1498634275336264,44.4,37.5,0.0879596445324728,0,0,0,0,0,0,0,1,0,0,0,0,0,0,0,0,0,0,1,0,0,0,0,0,0,0,0,1,0,0,0,0,0,0,0,0,0,0,0,0,0,0,0,0,0,0,0,0,0,0,0,0
1900,"Herbstweg 25, 8050 Zürich",3.0,70,47.40621566772461,8.558441162109375,1.1247421603316126,35.6,27.8,0.2928901489646235,1999,0,0,0,0,0,0,0,0,0,0,0,0,0,0,0,0,1,0,0,0,0,0,0,0,0,0,0,1,0,0,0,0,0,0,0,0,0,0,0,0,0,0,0,0,0,0,0,0,0,0,0
2030,"Wydäckerring 61, 8047 Zürich",1.5,42,47.36992645263672,8.496732711791992,0.28449042357632004,33.3,24.8,0.2319288749653328,0,1,0,0,0,0,0,0,0,0,0,0,0,0,1,0,0,0,0,0,0,0,0,0,0,0,0,1,0,0,0,0,0,0,0,0,0,0,0,0,0,0,0,0,0,0,0,0,0,0,0,0
3187,"Buckhauserstrasse 49, 8048 Zürich",2.5,78,47.38429260253906,8.494190216064453,1.8839500665956694,37.5,29.7,0.11922644968705806,2022,0,0,0,0,0,0,0,0,0,0,0,0,0,0,0,1,0,0,0,0,0,0,0,0,0,0,0,0,0,0,0,0,0,0,0,0,0,0,0,0,0,0,0,0,0,0,0,0,1,0,0
2912,"Langstrasse 231, 8005 Zürich",3.5,56,47.38387680053711,8.530735969543457,0.35223540211888715,66.0,60.6,0.10452765233231005,1999,0,0,1,0,0,0,0,0,0,0,0,0,0,0,0,0,0,1,0,0,0,0,0,0,0,0,0,1,0,0,0,0,0,0,0,0,0,0,0,0,0,0,0,0,0,0,0,0,0,0,0
3575,"Letzigraben 116, 8047 Zürich",3.5,79,47.37694549560547,8.497270584106445,1.0449815498782964,46.7,38.0,0.14752147004812377,2023,0,0,0,0,0,0,0,0,0,0,0,0,0,0,0,0,0,1,0,0,0,0,0,0,0,0,0,0,0,0,0,0,0,0,0,0,0,0,0,0,0,0,0,0,0,0,0,0,0,1,0
2381,"Soldanellastrasse 3, 8048 Zürich",2.5,60,47.38318634033203,8.498124122619629,1.7365955093340002,34.3,27.9,0.09407901904199617,1999,1,0,0,0,0,0,0,0,0,0,0,0,0,0,0,1,0,0,0,0,0,0,0,0,0,0,0,1,0,0,0,0,0,0,0,0,0,0,0,0,0,0,0,0,0,0,0,0,0,0,0
2990,"Badenerstrasse 136, 8004 Zürich",2.5,69,47.37461471557617,8.522954940795898,0.8193677247082694,48.3,43.8,0.09942640097991734,2021,0,0,0,0,1,0,0,0,1,0,0,0,0,0,0,1,0,0,0,0,0,0,0,0,0,0,0,0,0,0,0,0,0,0,0,0,0,0,0,0,0,0,0,0,0,0,0,1,0,0,0
2912,"Langstrasse 231, 8005 Zürich",3.5,50,47.38387680053711,8.530735969543457,0.35223540211888715,66.0,60.6,0.10452765233231005,1999,0,0,0,0,0,0,0,0,0,0,0,0,0,0,0,0,0,1,0,0,0,0,0,0,0,0,0,1,0,0,0,0,0,0,0,0,0,0,0,0,0,0,0,0,0,0,0,0,0,0,0
1656,"Gubelstrasse 60, 8050 Zürich",1.0,25,47.40934753417969,8.541423797607422,0.5864363257491724,44.8,34.3,0.17188606843005605,1999,0,0,0,0,0,0,0,0,0,0,0,0,1,0,0,0,0,0,0,0,0,0,0,0,0,0,0,1,0,0,0,0,0,0,0,0,0,0,0,0,0,0,0,0,0,0,0,0,0,0,0
4700,"Europaallee 40, 8004 Zürich",2.5,88,47.379295349121094,8.53247356414795,0.12496343046470675,43.6,35.7,0.1873504325055376,2019,0,0,0,0,0,0,0,0,0,0,0,0,0,0,0,1,0,0,0,0,0,0,0,0,0,0,0,0,0,0,0,0,0,0,0,0,0,0,0,0,0,0,0,0,0,1,0,0,0,0,0
1842,"Roswiesenstrasse 183, 8051 Zürich",2.0,56,47.40787887573242,8.581938743591309,3.5849756184858337,51.6,43.5,0.21156893498008789,1999,0,0,1,0,0,0,0,0,0,1,0,0,0,0,1,0,0,0,0,0,0,0,0,0,0,0,0,1,0,0,0,0,0,0,0,0,0,0,0,0,0,0,0,0,0,0,0,0,0,0,0
1894,"Baslerstrasse 138, 8048 Zürich",3.0,53,47.38925552368164,8.488677978515625,2.515778288024247,41.8,32.9,0.17069380905688045,1999,0,0,0,0,0,0,0,0,0,0,0,0,0,0,0,0,1,0,0,0,0,0,0,0,0,0,0,1,0,0,0,0,0,0,0,0,0,0,0,0,0,0,0,0,0,0,0,0,0,0,0
3020,"Imbisbühlsteig 22, 8049 Zürich",4.5,115,47.40721893310547,8.484848022460938,2.8016066317989043,35.3,26.4,0.31083991050626053,1999,0,0,0,0,0,0,0,0,0,0,0,0,0,0,0,0,0,0,0,1,0,0,0,0,0,0,0,1,0,0,0,0,0,0,0,0,0,0,0,0,0,0,0,0,0,0,0,0,0,0,0
3095,"Rosengartenstrasse 55, 8037 Zürich",2.5,53,47.3958854675293,8.529154777526855,0.687731734941458,44.0,38.1,0.22657053267496036,1999,0,0,0,0,0,0,0,0,0,0,0,0,0,0,0,1,0,0,0,0,0,0,0,0,0,0,0,1,0,0,0,0,0,0,0,0,0,0,0,0,0,0,0,0,0,0,0,0,0,0,0
7500,"Zeughausstrasse 3, 8004 Zürich",4.5,160,47.3746452331543,8.53188705444336,0.5615179181963575,38.1,32.4,0.28603292797853624,0,0,0,0,0,0,0,0,0,0,0,0,1,0,0,0,0,0,0,0,1,0,0,0,0,0,0,1,0,0,0,0,0,0,0,0,0,0,0,0,0,0,0,0,0,0,0,0,0,0,0,0
2782,"Dorfstrasse 40, 8037 Zürich",2.5,66,47.394588470458984,8.522298812866211,0.4376101884193379,45.2,38.3,0.210520537771738,1999,0,0,0,0,0,1,0,0,0,0,0,0,0,0,0,1,0,0,0,0,0,0,0,0,0,0,0,1,0,0,0,0,0,0,0,0,0,0,0,0,0,0,0,0,0,0,0,0,0,0,0
1875,"Limmattalstrasse 266, 8049 Zürich",1.5,30,47.403141021728516,8.491690635681152,2.171430294933805,54.4,44.7,0.045308226327374,1999,0,1,0,0,0,0,0,0,0,0,0,0,0,1,0,0,0,0,0,0,0,0,0,0,0,0,0,1,0,0,0,0,0,0,0,0,0,0,0,0,0,0,0,0,0,0,0,0,0,0,0
2690,"Wartauweg 19, 8049 Zürich",2.5,45,47.40304183959961,8.49215316772461,2.1349610207013243,53.6,43.9,0.04134169284429025,1999,0,1,0,0,0,0,0,0,0,0,0,0,0,0,0,1,0,0,0,0,0,0,0,0,0,0,0,1,0,0,0,0,0,0,0,0,0,0,0,0,0,0,0,0,0,0,0,0,0,0,0
4363,"Frauentalweg 102, 8045 Zürich",4.5,143,47.35435104370117,8.508347511291504,1.5376618097289327,29.5,21.8,0.2666936738139679,2008,0,0,0,0,0,0,0,0,0,0,0,0,0,0,0,0,0,0,0,1,0,0,0,0,0,0,0,0,0,0,0,0,0,0,1,0,0,0,0,0,0,0,0,0,0,0,0,0,0,0,0
2290,"Scheuchzerstrasse 20, 8006 Zürich",3.0,61,47.38337326049805,8.545563697814941,0.6783452485861857,45.0,32.2,0.15294328298436521,1999,0,0,0,0,0,0,0,0,0,0,0,0,0,0,0,0,1,0,0,0,0,0,0,0,0,0,0,1,0,0,0,0,0,0,0,0,0,0,0,0,0,0,0,0,0,0,0,0,0,0,0
2320,"Ottenweg 11, 8008 Zürich",1.5,42,47.36332321166992,8.553328514099121,0.6603218021531772,41.3,31.8,0.19813840507425978,1999,0,0,0,1,0,0,0,0,0,0,0,0,0,1,0,0,0,0,0,0,0,0,0,0,0,0,0,1,0,0,0,0,0,0,0,0,0,0,0,0,0,0,0,0,0,0,0,0,0,0,0
2450,"Langstrasse 213, 8005 Zürich",1.0,25,47.383140563964844,8.530109405517578,0.3925988633821836,43.5,38.1,0.14862658729299008,1999,0,0,0,0,0,0,0,0,0,0,0,0,1,0,0,0,0,0,0,0,0,0,0,0,0,0,0,1,0,0,0,0,0,0,0,0,0,0,0,0,0,0,0,0,0,0,0,0,0,0,0
2953,"In Böden 132, 8046 Zürich",3.5,85,47.41838073730469,8.510642051696777,2.2945416834174175,45.8,38.4,0.3179650892291226,2013,0,0,0,0,0,0,0,0,0,0,0,0,0,0,0,0,0,1,0,0,0,0,0,0,0,0,0,0,0,0,0,0,0,0,0,0,0,0,0,1,0,0,0,0,0,0,0,0,0,0,0
1950,"Engweg 7, 8006 Zürich",1.0,60,47.38504409790039,8.537590980529785,0.45553101072863733,52.1,46.9,0.23999295024033615,1999,0,0,0,0,0,0,0,0,0,0,0,0,1,0,0,0,0,0,0,0,0,0,0,0,0,0,0,1,0,0,0,0,0,0,0,0,0,0,0,0,0,0,0,0,0,0,0,0,0,0,0
2443,"Kügeliloostrasse 99, 8046 Zürich",3.5,77,47.41554641723633,8.530203819274902,1.3129575772933264,31.6,22.2,0.05791320801826195,2018,1,0,0,0,0,0,0,0,0,0,0,0,0,0,0,0,0,1,0,0,0,0,0,0,0,0,0,0,0,0,0,0,0,0,0,0,0,0,0,0,0,0,0,0,1,0,0,0,0,0,0
5850,"Wirzenweid 27, 8053 Zürich",4.5,150,47.357120513916016,8.58321475982666,0.7417977931362018,32.5,22.7,0.1475191082232404,1999,0,0,0,0,0,0,0,0,0,0,0,0,0,0,0,0,0,0,0,1,0,0,0,0,0,0,0,1,0,0,0,0,0,0,0,0,0,0,0,0,0,0,0,0,0,0,0,0,0,0,0
2610,"Röslistrasse 57, 8006 Zürich",3.0,81,47.390933990478516,8.544818878173828,1.4633659169191424,55.9,45.9,0.0581437733237736,1999,0,0,1,0,0,0,0,0,0,0,0,0,0,0,0,0,1,0,0,0,0,0,0,0,0,0,0,1,0,0,0,0,0,0,0,0,0,0,0,0,0,0,0,0,0,0,0,0,0,0,0
1710,"Müllerstrasse 76, 8004 Zürich",1.5,25,47.37632369995117,8.528502464294434,0.4115950078632961,55.6,46.7,0.20856971362123056,2015,0,0,0,0,0,0,0,0,0,0,0,0,0,1,0,0,0,0,0,0,0,0,0,0,0,0,0,0,0,0,0,0,0,0,0,0,0,0,0,0,0,1,0,0,0,0,0,0,0,0,0
3839,"Staffelstrasse 5, 8045 Zürich",3.5,111,47.361183166503906,8.522086143493652,1.2033741135681248,53.4,47.9,0.14362810908128817,1999,0,0,0,0,0,0,0,0,0,0,0,0,0,0,0,0,0,1,0,0,0,0,0,0,0,0,0,1,0,0,0,0,0,0,0,0,0,0,0,0,0,0,0,0,0,0,0,0,0,0,0
3190,"Rolandstrasse 3, 8004 Zürich",3.5,65,47.37883758544922,8.526875495910645,0.316147964880821,51.0,45.6,0.10196780719172426,1999,0,1,0,0,0,0,0,0,0,0,0,0,0,0,0,0,0,1,0,0,0,0,0,0,0,0,0,1,0,0,0,0,0,0,0,0,0,0,0,0,0,0,0,0,0,0,0,0,0,0,0
4280,"Naphtastrasse 4, 8005 Zürich",2.5,109,47.3870849609375,8.516118049621582,1.26102927634172,52.4,43.5,0.19118215912463013,2015,1,0,0,0,0,0,0,0,0,0,0,0,0,0,0,1,0,0,0,0,0,0,0,0,0,0,0,0,0,0,0,0,0,0,0,0,0,0,0,0,0,1,0,0,0,0,0,0,0,0,0
2590,"Winterthurerstrasse 295, 8057 Zürich",3.5,71,47.40293884277344,8.553873062133789,1.21451436609578,61.0,53.6,0.19406674938247154,1999,0,0,1,0,0,0,0,0,0,0,0,0,0,0,0,0,0,1,0,0,0,0,0,0,0,0,0,1,0,0,0,0,0,0,0,0,0,0,0,0,0,0,0,0,0,0,0,0,0,0,0
4095,"Dienerstrasse 8, 8004 Zürich",2.5,56,47.377655029296875,8.528881072998047,0.2689278954484733,36.9,30.2,0.14031721705295075,2023,0,0,0,0,0,0,0,0,0,0,0,0,0,0,0,1,0,0,0,0,0,0,0,0,0,0,0,0,0,0,0,0,0,0,0,0,0,0,0,0,0,0,0,0,0,0,0,0,0,1,0
5983,"Tödistrasse 63, 8002 Zürich",3.5,81,47.36863708496094,8.532673835754395,1.2319150438241875,38.2,31.9,0.23167391447314198,2022,0,0,0,0,0,0,0,0,0,0,0,0,0,0,0,0,0,1,0,0,0,0,0,0,0,0,0,0,0,0,0,0,0,0,0,0,0,0,0,0,0,0,0,0,0,0,0,0,1,0,0
5125,"Wildbachstrasse 39, 8008 Zürich",4.5,121,47.356292724609375,8.557610511779785,0.3759475018697232,36.1,26.2,0.1360139733939165,2024,0,1,0,1,0,0,0,0,0,0,0,0,0,0,0,0,0,0,0,1,0,0,0,0,0,0,0,0,0,0,0,0,0,0,0,0,0,0,0,0,0,0,0,0,0,0,0,0,0,0,1
1630,"Culmannstrasse 30, 8006 Zürich",1.0,37,47.38124084472656,8.54763412475586,0.3949765686441153,38.2,29.6,0.11522838187915849,1999,0,0,0,0,0,0,0,0,0,1,0,0,1,0,0,0,0,0,0,0,0,0,0,0,0,0,0,1,0,0,0,0,0,0,0,0,0,0,0,0,0,0,0,0,0,0,0,0,0,0,0
4510,"Forsterstrasse 67, 8044 Zürich",4.5,121,47.381378173828125,8.559873580932617,0.786528007486998,26.9,16.9,0.2574822462144456,1999,0,0,0,0,0,0,0,0,0,0,1,0,0,0,0,0,0,0,0,1,0,0,0,0,0,0,0,1,0,0,0,0,0,0,0,0,0,0,0,0,0,0,0,0,0,0,0,0,0,0,0
2380,"Albisstrasse 124, 8038 Zürich",3.5,80,47.336769104003906,8.52979564666748,1.7585015713031635,58.6,47.2,0.18800776391442853,1999,0,0,0,0,0,0,0,0,0,0,0,0,0,0,0,0,0,1,0,0,0,0,0,0,0,0,0,1,0,0,0,0,0,0,0,0,0,0,0,0,0,0,0,0,0,0,0,0,0,0,0
4455,"Aemtlerstrasse 17, 8003 Zürich",2.5,95,47.37135314941406,8.515939712524414,1.4560591817659718,61.5,54.2,0.017079364095598903,1999,0,0,1,0,0,0,0,0,0,0,0,0,0,0,0,1,0,0,0,0,0,0,0,0,0,0,0,1,0,0,0,0,0,0,0,0,0,0,0,0,0,0,0,0,0,0,0,0,0,0,0
4080,"Katharinenweg 5, 8002 Zürich",3.5,99,47.36095428466797,8.52803897857666,0.9759541631938938,38.2,32.7,0.1399687097458703,1999,0,1,0,0,0,0,0,0,0,0,0,0,0,0,0,0,0,1,0,0,0,0,0,0,0,0,0,1,0,0,0,0,0,0,0,0,0,0,0,0,0,0,0,0,0,0,0,0,0,0,0
3431,"Baslerstrasse 77, 8048 Zürich",2.0,70,47.386112213134766,8.496638298034668,2.065279445010333,52.3,43.9,0.031044608159960452,2022,0,0,0,0,0,0,0,0,0,0,0,0,0,0,1,0,0,0,0,0,0,0,0,0,0,0,0,0,0,0,0,0,0,0,0,0,0,0,0,0,0,0,0,0,0,0,0,0,1,0,0
4840,"Badenerstrasse 157, 8004 Zürich",3.5,113,47.374290466308594,8.521708488464355,0.9133108638121932,65.8,61.3,0.03256705076744719,1999,1,0,0,0,0,0,0,0,0,0,0,0,0,0,0,0,0,1,0,0,0,0,0,0,0,0,0,1,0,0,0,0,0,0,0,0,0,0,0,0,0,0,0,0,0,0,0,0,0,0,0
4765,"Badenerstrasse 157, 8004 Zürich",4.5,110,47.374290466308594,8.521708488464355,0.9133108638121932,65.8,61.3,0.03256705076744719,1999,1,0,0,0,0,0,0,0,0,0,0,0,0,0,0,0,0,0,0,1,0,0,0,0,0,0,0,1,0,0,0,0,0,0,0,0,0,0,0,0,0,0,0,0,0,0,0,0,0,0,0
1650,"Ankerstrasse 110, 8004 Zürich",1.0,23,47.37609100341797,8.527901649475098,0.45562851990479214,59.3,52.3,0.16540829068636914,1999,0,0,0,0,0,0,0,0,0,0,0,0,1,0,0,0,0,0,0,0,0,0,0,0,0,0,0,1,0,0,0,0,0,0,0,0,0,0,0,0,0,0,0,0,0,0,0,0,0,0,0
3450,"Zwirnerstrasse 78, 8041 Zürich",3.5,112,47.337982177734375,8.516444206237793,1.983893487103194,44.5,39.4,0.20256746962004152,1999,0,0,0,0,0,0,0,0,0,0,0,0,0,0,0,0,0,1,0,0,0,0,0,0,0,0,0,1,0,0,0,0,0,0,0,0,0,0,0,0,0,0,0,0,0,0,0,0,0,0,0
1895,"Riedenhaldenstrasse 30, 8046 Zürich",3.0,64,47.4159049987793,8.516359329223633,1.9204638129526312,46.8,36.9,0.27298876001307165,1999,0,0,0,0,0,0,0,0,0,1,0,0,0,0,0,0,1,0,0,0,0,0,0,0,0,0,0,1,0,0,0,0,0,0,0,0,0,0,0,0,0,0,0,0,0,0,0,0,0,0,0
3870,"Hädrichstrasse 7, 8047 Zürich",5.5,139,47.378292083740234,8.491242408752441,1.302402982771528,39.3,31.8,0.20902763226774546,2006,1,0,0,0,0,0,0,0,0,0,0,0,0,0,0,0,0,0,0,0,0,1,0,0,0,0,0,0,0,0,0,0,0,1,0,0,0,0,0,0,0,0,0,0,0,0,0,0,0,0,0
2700,"Bachmattstrasse 59, 8048 Zürich",2.5,71,47.389041900634766,8.483692169189453,2.6257194962588786,39.4,33.4,0.05015760617409696,2017,1,0,0,0,0,0,0,0,0,0,0,0,0,0,0,1,0,0,0,0,0,0,0,0,0,0,0,0,0,0,0,0,0,0,0,0,0,0,0,0,0,0,0,1,0,0,0,0,0,0,0
3055,"Rainfussweg 3, 8038 Zürich",3.5,83,47.34248352050781,8.52997875213623,1.124683296090157,48.1,39.9,0.12216619977701465,1999,1,0,1,0,0,0,1,0,0,0,0,0,0,0,0,0,0,1,0,0,0,0,0,0,0,0,0,1,0,0,0,0,0,0,0,0,0,0,0,0,0,0,0,0,0,0,0,0,0,0,0
5300,"Loogartenstrasse 22, 8048 Zürich",5.5,186,47.389957427978516,8.473957061767578,3.1244306903926655,45.6,32.5,0.09060582742603819,2003,0,0,0,0,0,0,0,0,0,0,0,0,0,0,0,0,0,0,0,0,0,1,0,0,0,0,0,0,0,0,1,0,0,0,0,0,0,0,0,0,0,0,0,0,0,0,0,0,0,0,0
2760,"Welchogasse 5, 8050 Zürich",3.5,85,47.409297943115234,8.545917510986328,0.41044432018525606,37.7,29.3,0.08902175002227615,1999,0,0,1,0,0,0,0,0,0,0,0,0,0,0,0,0,0,1,0,0,0,0,0,0,0,0,0,1,0,0,0,0,0,0,0,0,0,0,0,0,0,0,0,0,0,0,0,0,0,0,0
2750,"Langgrütstrasse 103, 8047 Zürich",4.0,71,47.372920989990234,8.495580673217773,0.6269691368430446,29.5,20.2,0.1628384513767795,1999,0,0,0,0,0,0,0,0,0,0,0,0,0,0,0,0,0,0,1,0,0,0,0,0,0,0,0,1,0,0,0,0,0,0,0,0,0,0,0,0,0,0,0,0,0,0,0,0,0,0,0
3506,"Baslerstrasse 77, 8048 Zürich",3.0,83,47.386112213134766,8.496638298034668,2.065279445010333,52.3,43.9,0.031044608159960452,2022,0,0,0,0,0,0,0,0,0,0,0,0,0,0,0,0,1,0,0,0,0,0,0,0,0,0,0,0,0,0,0,0,0,0,0,0,0,0,0,0,0,0,0,0,0,0,0,0,1,0,0
2380,"Marienstrasse 20, 8003 Zürich",2.0,46,47.37449264526367,8.517977714538574,1.12940949399432,44.9,39.5,0.10846421811018661,1999,0,0,0,0,0,0,0,0,0,0,0,0,0,0,1,0,0,0,0,0,0,0,0,0,0,0,0,1,0,0,0,0,0,0,0,0,0,0,0,0,0,0,0,0,0,0,0,0,0,0,0
2200,"Tuggenerstrasse 3, 8008 Zürich",2.0,43,47.35748291015625,8.555234909057617,0.5667407071145794,58.7,47.0,0.09612975378780284,1999,0,0,1,1,0,0,0,0,0,0,0,0,0,0,1,0,0,0,0,0,0,0,0,0,0,0,0,1,0,0,0,0,0,0,0,0,0,0,0,0,0,0,0,0,0,0,0,0,0,0,0
4220,"Forchstrasse 24, 8008 Zürich",3.0,89,47.36378479003906,8.5558443069458,0.8923257910417308,45.6,35.5,0.14748120517195484,1999,0,0,0,0,0,0,0,0,0,0,0,0,0,0,0,0,1,0,0,0,0,0,0,0,0,0,0,1,0,0,0,0,0,0,0,0,0,0,0,0,0,0,0,0,0,0,0,0,0,0,0
6370,"Forchstrasse 22, 8008 Zürich",6.0,147,47.36381149291992,8.55556583404541,0.8933611719776626,40.6,31.1,0.18472991854157447,1999,0,0,0,0,0,0,0,0,0,0,0,0,0,0,0,0,0,0,0,0,0,0,1,0,0,0,0,1,0,0,0,0,0,0,0,0,0,0,0,0,0,0,0,0,0,0,0,0,0,0,0
3947,"Trichtenhausenstrasse 86, 8053 Zürich",4.5,108,47.35530090332031,8.598923683166504,1.7518863933540803,35.1,26.4,0.12485225304681226,2023,0,0,0,0,1,0,0,0,0,0,0,0,0,0,0,0,0,0,0,1,0,0,0,0,0,0,0,0,0,0,0,0,0,0,0,0,0,0,0,0,0,0,0,0,0,0,0,0,0,1,0
3950,"Hadlaubstrasse 41, 8006 Zürich",4.5,155,47.383628845214844,8.553703308105469,0.6192748781560619,45.3,32.0,0.19852966961316224,1999,0,0,0,0,0,0,0,0,0,0,0,0,0,0,0,0,0,0,0,1,0,0,0,0,0,0,0,1,0,0,0,0,0,0,0,0,0,0,0,0,0,0,0,0,0,0,0,0,0,0,0
1799,"Bombachstrasse 24, 8049 Zürich",3.0,65,47.40511703491211,8.48532485961914,2.692136986906593,51.6,41.6,0.16971794163840404,1999,0,0,0,0,0,0,0,0,0,0,0,0,0,0,0,0,1,0,0,0,0,0,0,0,0,0,0,1,0,0,0,0,0,0,0,0,0,0,0,0,0,0,0,0,0,0,0,0,0,0,0
3461,"Birmensdorferstrasse 32, 8004 Zürich",4.0,77,47.372283935546875,8.526399612426758,0.8864328440879278,41.5,34.3,0.04464820777399755,1999,0,0,0,0,0,0,0,0,0,0,1,0,0,0,0,0,0,0,1,0,0,0,0,0,0,0,0,1,0,0,0,0,0,0,0,0,0,0,0,0,0,0,0,0,0,0,0,0,0,0,0
2740,"Dorfstrasse 12, 8037 Zürich",4.5,91,47.39414596557617,8.523874282836914,0.5505261903578268,41.5,35.0,0.1213617451679952,1999,0,0,0,0,0,0,0,0,0,0,1,0,0,0,0,0,0,0,0,1,0,0,0,0,0,0,0,1,0,0,0,0,0,0,0,0,0,0,0,0,0,0,0,0,0,0,0,0,0,0,0
2475,"Hinterbergstrasse 57, 8044 Zürich",2.5,62,47.382015228271484,8.556857109069824,0.6061433048327745,37.9,26.6,0.1387257974876673,2023,0,0,0,0,0,0,0,0,0,0,0,0,0,0,0,1,0,0,0,0,0,0,0,0,0,0,0,0,0,0,0,0,0,0,0,0,0,0,0,0,0,0,0,0,0,0,0,0,0,1,0
2490,"Schaffhauserstrasse 438, 8050 Zürich",2.5,46,47.416568756103516,8.545424461364746,0.43094102380112104,42.8,33.3,0.017807078425796333,1999,0,0,0,1,0,0,0,0,0,0,0,0,0,0,0,1,0,0,0,0,0,0,0,0,0,0,0,1,0,0,0,0,0,0,0,0,0,0,0,0,0,0,0,0,0,0,0,0,0,0,0
1543,"Schaffhauserstrasse 411, 8050 Zürich",2.0,51,47.414791107177734,8.545281410217285,0.25660874668041933,48.3,37.3,0.17179900810530946,1999,0,0,1,0,0,0,0,0,0,0,0,0,0,0,1,0,0,0,0,0,0,0,0,0,0,0,0,1,0,0,0,0,0,0,0,0,0,0,0,0,0,0,0,0,0,0,0,0,0,0,0
3990,"Breitingerstrasse 27, 8002 Zürich",3.0,97,47.362091064453125,8.532349586486816,1.064122582046265,55.3,44.1,0.16387731600176417,1999,0,0,0,0,1,0,0,0,0,0,0,0,0,0,0,0,1,0,0,0,0,0,0,0,0,0,0,1,0,0,0,0,0,0,0,0,0,0,0,0,0,0,0,0,0,0,0,0,0,0,0
2130,"Hardaustrasse 21, 8003 Zürich",3.0,67,47.37723159790039,8.509321212768555,1.362279512776682,50.0,44.0,0.1360060617090036,1999,0,0,0,0,0,0,0,0,0,0,0,0,0,0,0,0,1,0,0,0,0,0,0,0,0,0,0,1,0,0,0,0,0,0,0,0,0,0,0,0,0,0,0,0,0,0,0,0,0,0,0
6575,"Seestrasse 27, 8002 Zürich",3.5,126,47.36330032348633,8.53154182434082,1.1974522044647111,53.6,44.2,0.09201678708303021,2015,0,0,0,0,0,0,0,0,0,0,0,0,0,0,0,0,0,1,0,0,0,0,0,0,0,0,0,0,0,0,0,0,0,0,0,0,0,0,0,0,0,1,0,0,0,0,0,0,0,0,0
3705,"Forchstrasse 261, 8032 Zürich",2.5,109,47.35848617553711,8.571672439575195,0.6577069648266193,60.9,53.6,0.0539840141152829,2015,0,0,0,0,0,0,1,0,0,0,0,0,0,0,0,1,0,0,0,0,0,0,0,0,0,0,0,0,0,0,0,0,0,0,0,0,0,0,0,0,0,1,0,0,0,0,0,0,0,0,0
2990,"Beckenhofstrasse 30, 8006 Zürich",4.0,55,47.38453674316406,8.541972160339355,0.67070280358552,42.1,32.3,0.0799599031062696,1999,0,0,1,0,0,0,0,0,0,0,0,0,0,0,0,0,0,0,1,0,0,0,0,0,0,0,0,1,0,0,0,0,0,0,0,0,0,0,0,0,0,0,0,0,0,0,0,0,0,0,0
2990,"Beckenhofstrasse 30, 8006 Zürich",4.0,55,47.38453674316406,8.541972160339355,0.67070280358552,42.1,32.3,0.0799599031062696,1999,0,0,0,0,0,0,0,0,0,0,0,0,0,0,0,0,0,0,1,0,0,0,0,0,0,0,0,1,0,0,0,0,0,0,0,0,0,0,0,0,0,0,0,0,0,0,0,0,0,0,0
4660,"Forsterstrasse 67, 8044 Zürich",4.5,119,47.381378173828125,8.559873580932617,0.786528007486998,26.9,16.9,0.2574822462144456,1999,0,0,0,1,0,0,0,0,0,0,0,0,0,0,0,0,0,0,0,1,0,0,0,0,0,0,0,1,0,0,0,0,0,0,0,0,0,0,0,0,0,0,0,0,0,0,0,0,0,0,0
2570,"Steinstrasse 35, 8003 Zurich",2.0,50,47.36699676513672,8.520323753356934,1.6167664757234712,60.0,53.2,0.19187049529308522,0,0,0,0,0,1,0,0,0,0,1,0,1,0,0,1,0,0,0,0,0,0,0,0,0,0,0,1,0,0,0,0,0,0,0,0,0,0,0,0,0,0,0,0,0,0,0,0,0,0,0,0
4300,"Spiserstrasse 15, 8047 Zürich",5.5,152,47.37910842895508,8.493478775024414,1.331485640229957,41.3,33.4,0.08191772118299061,1999,0,0,0,0,0,0,1,0,0,0,0,0,0,0,0,0,0,0,0,0,0,1,0,0,0,0,0,1,0,0,0,0,0,0,0,0,0,0,0,0,0,0,0,0,0,0,0,0,0,0,0
1900,"Bernerstrasse Süd 169, 8048 Zürich",1.5,23,47.39453125,8.486136436462402,3.132652638295214,51.4,45.1,0.15597160594937282,2021,0,0,0,0,0,0,0,0,0,0,0,0,0,1,0,0,0,0,0,0,0,0,0,0,0,0,0,0,0,0,0,0,0,0,0,0,0,0,0,0,0,0,0,0,0,0,0,1,0,0,0
1960,"Hagenholzstrasse 59, 8050 Zürich",1.5,24,47.41465759277344,8.555407524108887,0.647988998858256,61.6,50.3,0.027031983216772113,2023,0,0,0,0,0,0,0,0,0,0,0,0,0,1,0,0,0,0,0,0,0,0,0,0,0,0,0,0,0,0,0,0,0,0,0,0,0,0,0,0,0,0,0,0,0,0,0,0,0,1,0
2000,"Stiglenstrasse 33, 8052 Zürich",3.5,73,47.4272575378418,8.551857948303223,1.63606213256798,45.9,40.9,0.24319935892234734,1999,0,0,0,0,0,0,0,0,0,0,0,0,0,0,0,0,0,1,0,0,0,0,0,0,0,0,0,1,0,0,0,0,0,0,0,0,0,0,0,0,0,0,0,0,0,0,0,0,0,0,0
2500,"Doldertal 19, 8032 Zürich",2.5,50,47.37327194213867,8.565103530883789,0.1711098102941614,34.2,26.5,0.26075295781687363,1999,0,0,0,0,0,0,0,0,0,0,0,0,0,0,0,1,0,0,0,0,0,0,0,0,0,0,0,1,0,0,0,0,0,0,0,0,0,0,0,0,0,0,0,0,0,0,0,0,0,0,0
1830,"Bombachsteig 6, 8049 Zürich",2.0,56,47.403629302978516,8.489876747131348,2.31732538570029,38.0,28.9,0.17660579690590836,1999,0,0,1,0,0,0,0,0,0,0,1,0,0,0,1,0,0,0,0,0,0,0,0,0,0,0,0,1,0,0,0,0,0,0,0,0,0,0,0,0,0,0,0,0,0,0,0,0,0,0,0
2252,"Dufourstrasse 123, 8008 Zürich",2.0,58,47.35761260986328,8.552841186523438,0.2901977366299861,56.1,48.8,0.11098741249290893,1999,0,0,0,1,0,0,0,0,0,0,0,0,0,0,1,0,0,0,0,0,0,0,0,0,0,0,0,1,0,0,0,0,0,0,0,0,0,0,0,0,0,0,0,0,0,0,0,0,0,0,0
4043,"Freiestrasse 216, 8032 Zürich",4.0,109,47.360477447509766,8.566490173339844,0.7790241015864474,58.9,48.9,0.11008682240862994,1999,0,0,0,0,0,0,0,0,0,0,0,0,0,0,0,0,0,0,1,0,0,0,0,0,0,0,0,1,0,0,0,0,0,0,0,0,0,0,0,0,0,0,0,0,0,0,0,0,0,0,0
3150,"Wuhrstrasse 34, 8003 Zürich",2.5,60,47.36807632446289,8.52061653137207,1.501964167654398,47.9,41.3,0.18391615914000967,1999,0,0,0,0,0,0,0,0,0,0,0,0,0,0,0,1,0,0,0,0,0,0,0,0,0,0,0,1,0,0,0,0,0,0,0,0,0,0,0,0,0,0,0,0,0,0,0,0,0,0,0
2900,"Eichstrasse 25, 8045 Zürich",2.5,117,47.36249542236328,8.520402908325195,1.3962572721918494,50.4,44.5,0.12061596166818932,1999,0,0,1,0,0,0,0,0,0,0,0,0,0,0,0,1,0,0,0,0,0,0,0,0,0,0,0,1,0,0,0,0,0,0,0,0,0,0,0,0,0,0,0,0,0,0,0,0,0,0,0
6645,"Freiestrasse 53, 8032 Zürich",4.5,138,47.369842529296875,8.55568790435791,0.26575398810561485,54.6,43.8,0.10471146827318138,1999,0,0,0,0,0,0,0,1,0,0,0,0,0,0,0,0,0,0,0,1,0,0,0,0,0,0,0,1,0,0,0,0,0,0,0,0,0,0,0,0,0,0,0,0,0,0,0,0,0,0,0
3590,"Giblenstrasse 57, 8049 Zürich",3.5,112,47.41195297241211,8.480216026306152,3.335927483462918,45.7,38.9,0.23058557784360803,1999,1,0,0,0,0,0,0,0,0,0,0,0,0,0,0,0,0,1,0,0,0,0,0,0,0,0,0,1,0,0,0,0,0,0,0,0,0,0,0,0,0,0,0,0,0,0,0,0,0,0,0
4226,"Buckhauserstrasse 45, 8048 Zürich",4.5,123,47.3843994140625,8.493941307067871,1.898749817836845,49.1,38.5,0.12703546668850701,2022,0,0,0,0,0,0,0,0,0,0,0,0,0,0,0,0,0,0,0,1,0,0,0,0,0,0,0,0,0,0,0,0,0,0,0,0,0,0,0,0,0,0,0,0,0,0,0,0,1,0,0
2730,"Eugen-Huber-Str. 115, 8048 Zürich",2.5,51,47.38724899291992,8.475160598754883,2.820930243765841,33.3,20.8,0.14352457659624432,0,0,0,1,0,0,0,0,0,0,0,0,0,0,0,0,1,0,0,0,0,0,0,0,0,0,0,1,0,0,0,0,0,0,0,0,0,0,0,0,0,0,0,0,0,0,0,0,0,0,0,0
2324,"Heerenschürlistrasse 1, 8051 Zürich",3.5,80,47.40034866333008,8.590806007385254,3.1054657007123403,44.4,34.6,0.19006787776990547,2016,1,0,0,0,0,0,0,0,0,0,0,0,0,0,0,0,0,1,0,0,0,0,0,0,0,0,0,0,0,0,0,0,0,0,0,0,0,0,0,0,0,0,1,0,0,0,0,0,0,0,0
3050,"Weinbergstrasse 72, 8006 Zürich",2.5,73,47.383583068847656,8.54361629486084,0.789815483261226,55.1,48.6,0.08292057561169634,1999,0,0,0,0,0,0,0,0,0,0,0,0,0,0,0,1,0,0,0,0,0,0,0,0,0,0,0,1,0,0,0,0,0,0,0,0,0,0,0,0,0,0,0,0,0,0,0,0,0,0,0
4020,"Forchstrasse 22, 8008 Zürich",3.0,80,47.36381149291992,8.55556583404541,0.8933611719776626,40.6,31.1,0.18472991854157447,1999,0,0,0,0,0,0,0,0,0,0,0,0,0,0,0,0,1,0,0,0,0,0,0,0,0,0,0,1,0,0,0,0,0,0,0,0,0,0,0,0,0,0,0,0,0,0,0,0,0,0,0
2184,"Luegislandstrasse 56, 8051 Zürich",3.0,91,47.40608215332031,8.567268371582031,1.6887754004762634,49.5,37.8,0.09487643322748647,1999,0,0,0,0,0,0,0,0,0,0,0,0,0,0,0,0,1,0,0,0,0,0,0,0,0,0,0,1,0,0,0,0,0,0,0,0,0,0,0,0,0,0,0,0,0,0,0,0,0,0,0
2544,"Bombachsteig 8, 8049 Zürich",4.0,85,47.40360641479492,8.490296363830566,2.2861848351192138,49.1,39.4,0.1497736680356234,1999,0,0,0,0,0,0,0,0,0,0,0,0,0,0,0,0,0,0,1,0,0,0,0,0,0,0,0,1,0,0,0,0,0,0,0,0,0,0,0,0,0,0,0,0,0,0,0,0,0,0,0
1915,"Müllerstrasse 76, 8004 Zürich",1.5,25,47.37632369995117,8.528502464294434,0.4115950078632961,55.6,46.7,0.20856971362123056,2015,0,0,0,0,0,0,0,0,0,0,0,0,0,1,0,0,0,0,0,0,0,0,0,0,0,0,0,0,0,0,0,0,0,0,0,0,0,0,0,0,0,1,0,0,0,0,0,0,0,0,0
2481,"Badenerstrasse 565, 8048 Zürich",2.5,61,47.38383483886719,8.497687339782715,1.8091079233917917,61.9,56.8,0.14370676989680375,1999,1,0,0,0,1,0,0,0,1,0,0,0,0,0,0,1,0,0,0,0,0,0,0,0,0,0,0,1,0,0,0,0,0,0,0,0,0,0,0,0,0,0,0,0,0,0,0,0,0,0,0
2730,"Eugen-Huber-Str. 115, 8048 Zürich",2.5,50,47.38724899291992,8.475160598754883,2.820930243765841,33.3,20.8,0.14352457659624432,0,0,0,1,0,0,0,0,0,0,0,0,0,0,0,0,1,0,0,0,0,0,0,0,0,0,0,1,0,0,0,0,0,0,0,0,0,0,0,0,0,0,0,0,0,0,0,0,0,0,0,0
2780,"Birmensdorferstrasse 448, 8055 Zürich",2.5,64,47.368980407714844,8.49936294555664,0.17973693693133982,40.0,30.6,0.1818882798275735,0,0,0,0,0,1,0,0,0,1,0,0,0,0,0,0,1,0,0,0,0,0,0,0,0,0,0,1,0,0,0,0,0,0,0,0,0,0,0,0,0,0,0,0,0,0,0,0,0,0,0,0
3370,"Forchstrasse 261, 8032 Zürich",2.5,89,47.35848617553711,8.571672439575195,0.6577069648266193,60.9,53.6,0.0539840141152829,2015,0,0,0,0,0,0,1,0,0,0,0,0,0,0,0,1,0,0,0,0,0,0,0,0,0,0,0,0,0,0,0,0,0,0,0,0,0,0,0,0,0,1,0,0,0,0,0,0,0,0,0
3450,"Forchstrasse 261, 8032 Zürich",2.5,86,47.35848617553711,8.571672439575195,0.6577069648266193,60.9,53.6,0.0539840141152829,2015,0,0,0,0,0,0,1,0,0,0,0,0,0,0,0,1,0,0,0,0,0,0,0,0,0,0,0,0,0,0,0,0,0,0,0,0,0,0,0,0,0,1,0,0,0,0,0,0,0,0,0
2010,"Winterthurerstrasse 616, 8051 Zürich",1.5,40,47.405094146728516,8.578404426574707,3.2156399418952732,57.8,48.4,0.1618804329924695,1999,0,0,0,0,0,0,0,0,0,0,0,0,0,1,0,0,0,0,0,0,0,0,0,0,0,0,0,1,0,0,0,0,0,0,0,0,0,0,0,0,0,0,0,0,0,0,0,0,0,0,0
3410,"Siewerdtstrasse 19, 8050 Zürich",3.5,76,47.412330627441406,8.549160957336426,0.15964430462524729,43.3,34.6,0.16738863353810274,1999,0,1,0,0,0,0,0,0,0,0,0,0,0,0,0,0,0,1,0,0,0,0,0,0,0,0,0,1,0,0,0,0,0,0,0,0,0,0,0,0,0,0,0,0,0,0,0,0,0,0,0
3280,"Siewerdtstrasse 19, 8050 Zürich",2.5,64,47.412330627441406,8.549160957336426,0.15964430462524729,43.3,34.6,0.16738863353810274,1999,0,1,0,0,0,0,0,0,0,0,0,0,0,0,0,1,0,0,0,0,0,0,0,0,0,0,0,1,0,0,0,0,0,0,0,0,0,0,0,0,0,0,0,0,0,0,0,0,0,0,0
7250,"Auf der Mauer 13, 8001 Zürich",5.5,146,47.37824249267578,8.544598579406738,0.3836379720892475,44.9,38.6,0.1488865899248122,2024,1,0,0,0,0,0,0,0,0,0,0,0,0,0,0,0,0,0,0,0,0,1,0,0,0,0,0,0,0,0,0,0,0,0,0,0,0,0,0,0,0,0,0,0,0,0,0,0,0,0,1
6950,"Auf der Mauer 13, 8001 Zürich",4.5,134,47.37824249267578,8.544598579406738,0.3836379720892475,44.9,38.6,0.1488865899248122,2024,1,0,0,0,0,0,0,0,0,0,0,0,0,0,0,0,0,0,0,1,0,0,0,0,0,0,0,0,0,0,0,0,0,0,0,0,0,0,0,0,0,0,0,0,0,0,0,0,0,0,1
3015,"Bühlstrasse 10, 8055 Zürich",3.5,64,47.367801666259766,8.51564884185791,1.314349100014211,39.9,29.6,0.30435705888858794,1999,0,0,0,0,0,0,0,0,0,0,0,0,0,0,0,0,0,1,0,0,0,0,0,0,0,0,0,1,0,0,0,0,0,0,0,0,0,0,0,0,0,0,0,0,0,0,0,0,0,0,0
3750,"Frohalpstrasse 89, 8038 Zürich",3.5,103,47.339508056640625,8.525020599365234,1.5327291384174748,41.0,36.2,0.14897369359795293,1999,0,0,1,0,1,0,0,0,1,1,0,0,0,0,0,0,0,1,0,0,0,0,0,0,0,0,0,1,0,0,0,0,0,0,0,0,0,0,0,0,0,0,0,0,0,0,0,0,0,0,0
2650,"Frohalpstrasse 89, 8038 Zürich",2.5,64,47.339508056640625,8.525020599365234,1.5327291384174748,41.0,36.2,0.14897369359795293,1999,0,0,1,0,1,0,0,0,1,1,0,0,0,0,0,1,0,0,0,0,0,0,0,0,0,0,0,1,0,0,0,0,0,0,0,0,0,0,0,0,0,0,0,0,0,0,0,0,0,0,0
3550,"Bühlstrasse 10, 8055 Zürich",4.5,95,47.367801666259766,8.51564884185791,1.314349100014211,39.9,29.6,0.30435705888858794,1999,0,0,1,0,0,0,0,0,0,0,0,0,0,0,0,0,0,0,0,1,0,0,0,0,0,0,0,1,0,0,0,0,0,0,0,0,0,0,0,0,0,0,0,0,0,0,0,0,0,0,0
6830,"Lunastrasse 2, 8032 Zürich",6.0,170,47.36420440673828,8.559539794921875,0.4562941127595234,34.5,25.0,0.1804611332330443,1999,0,1,0,0,0,0,0,0,0,0,0,0,0,0,0,0,0,0,0,0,0,0,1,0,0,0,0,1,0,0,0,0,0,0,0,0,0,0,0,0,0,0,0,0,0,0,0,0,0,0,0
2460,"Albulastrasse 42, 8048 Zürich",2.5,63,47.38827896118164,8.493816375732422,2.3263956136494928,50.0,43.2,0.11042181618447082,2018,1,0,0,0,0,0,0,0,0,0,0,0,0,0,0,1,0,0,0,0,0,0,0,0,0,0,0,0,0,0,0,0,0,0,0,0,0,0,0,0,0,0,0,0,1,0,0,0,0,0,0
4150,"Mainaustrasse 19, 8008 Zürich",2.5,80,47.3606071472168,8.549551963806152,0.277435055638098,51.4,44.5,0.28764613408521583,1999,0,0,0,1,0,0,1,0,0,0,0,0,0,0,0,1,0,0,0,0,0,0,0,0,0,0,0,1,0,0,0,0,0,0,0,0,0,0,0,0,0,0,0,0,0,0,0,0,0,0,0
3180,"Konradstrasse 71, 8005 Zürich",3.5,58,47.381900787353516,8.53339672088623,0.059279959057928246,58.0,46.8,0.11847418505162131,1999,0,0,0,0,0,0,1,0,0,0,0,0,0,0,0,0,0,1,0,0,0,0,0,0,0,0,0,1,0,0,0,0,0,0,0,0,0,0,0,0,0,0,0,0,0,0,0,0,0,0,0
1500,"Seestrasse 65, 8002 Zürich",1.0,17,47.360931396484375,8.531801223754883,0.9340330862700277,53.6,45.0,0.029976415221276094,2022,0,0,0,0,0,0,0,0,0,0,0,0,1,0,0,0,0,0,0,0,0,0,0,0,0,0,0,0,0,0,0,0,0,0,0,0,0,0,0,0,0,0,0,0,0,0,0,0,1,0,0
1525,"Neptunstrasse 59, 8032 Zürich",1.5,25,47.36611557006836,8.557304382324219,0.6209437410614345,52.1,44.3,0.09487078337567592,1999,0,0,1,0,0,0,0,0,0,0,0,0,0,1,0,0,0,0,0,0,0,0,0,0,0,0,0,1,0,0,0,0,0,0,0,0,0,0,0,0,0,0,0,0,0,0,0,0,0,0,0
2485,"Bellariastrasse 59, 8038 Zürich",2.5,55,47.34925842285156,8.52993392944336,0.38712693247740176,36.7,30.8,0.19047393391499165,1999,0,0,0,0,0,0,0,0,0,0,0,0,0,0,0,1,0,0,0,0,0,0,0,0,0,0,0,1,0,0,0,0,0,0,0,0,0,0,0,0,0,0,0,0,0,0,0,0,0,0,0
3710,"Rotachstrasse 20, 8003 Zürich",2.5,50,47.37022399902344,8.516550064086914,1.5053744478465443,51.3,44.9,0.14947000228075,1999,1,0,0,0,0,0,0,0,0,0,0,0,0,0,0,1,0,0,0,0,0,0,0,0,0,0,0,1,0,0,0,0,0,0,0,0,0,0,0,0,0,0,0,0,0,0,0,0,0,0,0
2480,"Hohlstrasse 409, 8048 Zürich",1.5,60,47.3862190246582,8.503795623779297,2.116174736368659,64.8,55.3,0.04986053881003962,2021,0,0,0,0,0,0,0,0,0,0,0,0,0,1,0,0,0,0,0,0,0,0,0,0,0,0,0,0,0,0,0,0,0,0,0,0,0,0,0,0,0,0,0,0,0,0,0,1,0,0,0
2120,"Winterthurerstrasse 282, 8057 Zürich",3.5,70,47.40213394165039,8.553184509277344,1.2773812357357497,51.2,43.7,0.1074751180934724,1999,0,0,0,0,1,0,0,0,0,0,0,0,0,0,0,0,0,1,0,0,0,0,0,0,0,0,0,1,0,0,0,0,0,0,0,0,0,0,0,0,0,0,0,0,0,0,0,0,0,0,0
2850,"Feldeggstrasse 53, 8008 Zürich",3.0,62,47.36063766479492,8.552651405334473,0.3878591664844706,54.2,43.6,0.03782055274888137,1999,0,0,1,1,0,0,0,0,0,0,0,0,0,0,0,0,1,0,0,0,0,0,0,0,0,0,0,1,0,0,0,0,0,0,0,0,0,0,0,0,0,0,0,0,0,0,0,0,0,0,0
2380,"Alderstrasse 47, 8008 Zürich",2.0,50,47.35691452026367,8.55458927154541,0.4375655393841929,53.0,41.5,0.12331504591741521,1999,0,0,1,0,0,0,0,0,0,0,0,0,0,0,1,0,0,0,0,0,0,0,0,0,0,0,0,1,0,0,0,0,0,0,0,0,0,0,0,0,0,0,0,0,0,0,0,0,0,0,0
2630,"Feldblumenweg 14, 8048 Zürich",2.5,63,47.38154602050781,8.484209060668945,1.932764216459584,37.4,29.9,0.20065974030301129,2023,0,0,0,0,1,0,0,0,0,0,0,0,0,0,0,1,0,0,0,0,0,0,0,0,0,0,0,0,0,0,0,0,0,0,0,0,0,0,0,0,0,0,0,0,0,0,0,0,0,1,0
2920,"Hohlstrasse 52, 8004 Zürich",3.5,87,47.377811431884766,8.525679588317871,0.4430217044349995,47.8,40.8,0.16520733355448208,1999,0,0,0,0,0,0,0,0,0,0,0,0,0,0,0,0,0,1,0,0,0,0,0,0,0,0,0,1,0,0,0,0,0,0,0,0,0,0,0,0,0,0,0,0,0,0,0,0,0,0,0
3000,"Hagenholzstrasse 76, 8050 Zürich",3.5,103,47.41399383544922,8.556828498840332,0.7346320869164078,50.9,39.6,0.13265822739268412,2006,0,0,0,0,0,0,0,0,0,0,0,0,0,0,0,0,0,1,0,0,0,0,0,0,0,0,0,0,0,0,0,0,0,1,0,0,0,0,0,0,0,0,0,0,0,0,0,0,0,0,0
1849,"Schwandenholzstrasse 224, 8046 Zürich",2.5,58,47.42436981201172,8.522050857543945,2.8374906040513763,35.0,22.2,0.09282183639764427,1999,0,0,0,0,0,0,0,0,0,0,0,0,0,0,0,1,0,0,0,0,0,0,0,0,0,0,0,1,0,0,0,0,0,0,0,0,0,0,0,0,0,0,0,0,0,0,0,0,0,0,0
2990,"Badenerstrasse 136, 8004 Zürich",2.5,68,47.37461471557617,8.522954940795898,0.8193677247082694,48.3,43.8,0.09942640097991734,2021,1,0,0,0,0,0,0,0,0,0,0,0,0,0,0,1,0,0,0,0,0,0,0,0,0,0,0,0,0,0,0,0,0,0,0,0,0,0,0,0,0,0,0,0,0,0,0,1,0,0,0
2200,"Waldstrasse 14, 8046 Zürich",3.0,55,47.410064697265625,8.5236177444458,1.265542602008698,38.3,29.6,0.07846129421102634,1999,0,0,0,0,0,0,0,0,0,0,0,0,0,0,0,0,1,0,0,0,0,0,0,0,0,0,0,1,0,0,0,0,0,0,0,0,0,0,0,0,0,0,0,0,0,0,0,0,0,0,0
2290,"Schaffhauserstrasse 439, 8050 Zürich",2.5,58,47.416690826416016,8.544679641723633,0.4638564196966486,46.4,36.3,0.05249981374138873,1999,0,0,0,0,0,0,0,0,0,0,1,0,0,0,0,1,0,0,0,0,0,0,0,0,0,0,0,1,0,0,0,0,0,0,0,0,0,0,0,0,0,0,0,0,0,0,0,0,0,0,0
2250,"Schaffhauserstrasse 439, 8050 Zürich",2.5,60,47.416690826416016,8.544679641723633,0.4638564196966486,46.4,36.3,0.05249981374138873,1999,0,0,0,0,0,0,0,0,0,0,1,0,0,0,0,1,0,0,0,0,0,0,0,0,0,0,0,1,0,0,0,0,0,0,0,0,0,0,0,0,0,0,0,0,0,0,0,0,0,0,0
2890,"Limmatstrasse 27, 8005 Zürich",2.5,53,47.38096237182617,8.53622817993164,0.17815851075403633,66.7,61.6,0.16152670755264162,2020,1,0,0,0,0,0,0,0,0,0,0,0,0,0,0,1,0,0,0,0,0,0,0,0,0,0,0,0,0,0,0,0,0,0,0,0,0,0,0,0,0,0,0,0,0,0,1,0,0,0,0
2200,"Zürichbergstrasse 59, 8044 Zürich",2.5,51,47.37539291381836,8.559072494506836,0.42123504656423655,51.4,41.0,0.11443105920580084,1999,0,0,0,0,0,0,0,0,0,0,0,0,0,0,0,1,0,0,0,0,0,0,0,0,0,0,0,1,0,0,0,0,0,0,0,0,0,0,0,0,0,0,0,0,0,0,0,0,0,0,0
1631,"Malojaweg 3, 8048 Zürich",2.0,45,47.387046813964844,8.481273651123047,2.5804095017403736,39.2,27.8,0.24802779369620465,1999,0,0,0,0,0,0,0,0,0,0,0,0,0,0,1,0,0,0,0,0,0,0,0,0,0,0,0,1,0,0,0,0,0,0,0,0,0,0,0,0,0,0,0,0,0,0,0,0,0,0,0
3261,"Max Bill Platz 9, 8050 Zürich",3.5,113,47.41413497924805,8.539446830749512,0.6000095782891489,56.2,48.5,0.117326152882142,0,1,0,0,0,0,0,0,0,0,0,0,0,0,0,0,0,0,1,0,0,0,0,0,0,0,0,1,0,0,0,0,0,0,0,0,0,0,0,0,0,0,0,0,0,0,0,0,0,0,0,0
2900,"Badenerstrasse 250, 8004 Zürich",2.5,58,47.3759880065918,8.516037940979004,1.1907982360838316,61.1,56.6,0.1275229402829901,2021,0,0,0,0,0,0,0,0,0,0,0,0,0,0,0,1,0,0,0,0,0,0,0,0,0,0,0,0,0,0,0,0,0,0,0,0,0,0,0,0,0,0,0,0,0,0,0,1,0,0,0
3340,"Mainaustrasse 49, 8008 Zürich",3.0,78,47.36133575439453,8.55277156829834,0.4523842557569968,40.2,30.3,0.10727348374783187,1999,0,0,0,1,0,0,0,0,0,0,0,0,0,0,0,0,1,0,0,0,0,0,0,0,0,0,0,1,0,0,0,0,0,0,0,0,0,0,0,0,0,0,0,0,0,0,0,0,0,0,0
1970,"Manessestrasse 69, 8003 Zürich",1.0,26,47.36600875854492,8.52232551574707,1.6485780004620234,58.5,52.4,0.0756076524046997,2018,0,0,0,0,1,0,0,0,0,0,0,0,1,0,0,0,0,0,0,0,0,0,0,0,0,0,0,0,0,0,0,0,0,0,0,0,0,0,0,0,0,0,0,0,1,0,0,0,0,0,0
1735,"Tulpenstrasse 43, 8051 Zürich",1.5,38,47.40571975708008,8.568177223205566,1.767986266422973,45.3,34.3,0.051844776270256035,2014,0,0,0,0,0,0,0,0,0,0,0,0,0,1,0,0,0,0,0,0,0,0,0,0,0,0,0,0,0,0,0,0,0,0,0,0,0,0,0,0,1,0,0,0,0,0,0,0,0,0,0
2700,"Dangelweg 3, 8038 Zürich",2.5,76,47.33229446411133,8.528797149658203,2.2607826799540045,45.9,39.9,0.2646356063732871,1999,1,0,0,0,0,0,0,0,0,0,0,0,0,0,0,1,0,0,0,0,0,0,0,0,0,0,0,1,0,0,0,0,0,0,0,0,0,0,0,0,0,0,0,0,0,0,0,0,0,0,0
3180,"Jungholzstrasse 48, 8050 Zürich",3.5,87,47.41596603393555,8.544360160827637,0.4039262057297851,49.2,37.1,0.11387260411526216,2014,0,0,0,0,0,0,0,0,0,0,0,0,0,0,0,0,0,1,0,0,0,0,0,0,0,0,0,0,0,0,0,0,0,0,0,0,0,0,0,0,1,0,0,0,0,0,0,0,0,0,0
3490,"Brunaustrasse 72, 8002 Zürich",2.5,110,47.35441589355469,8.525213241577148,0.530563430886866,54.5,49.4,0.15396940791364605,1999,1,0,0,0,0,0,0,0,0,0,0,0,0,0,0,1,0,0,0,0,0,0,0,0,0,0,0,1,0,0,0,0,0,0,0,0,0,0,0,0,0,0,0,0,0,0,0,0,0,0,0
2241,"Schaffhauserstrasse 330, 8050 Zürich",2.5,60,47.40765380859375,8.547321319580078,0.5817526656775285,55.1,45.6,0.1477204233243662,1999,0,0,0,0,0,0,0,0,0,0,0,0,0,0,0,1,0,0,0,0,0,0,0,0,0,0,0,1,0,0,0,0,0,0,0,0,0,0,0,0,0,0,0,0,0,0,0,0,0,0,0
3405,"Allmannstrasse 55, 8052 Zürich",3.5,88,47.41731262207031,8.550938606262207,0.5668804240771547,33.0,24.5,0.3229459844668434,1999,0,0,0,0,1,0,0,0,1,0,0,0,0,0,0,0,0,1,0,0,0,0,0,0,0,0,0,1,0,0,0,0,0,0,0,0,0,0,0,0,0,0,0,0,0,0,0,0,0,0,0
1950,"Konradstrasse 71, 8005 Zürich",1.5,26,47.381900787353516,8.53339672088623,0.059279959057928246,58.0,46.8,0.11847418505162131,1999,0,0,0,0,0,0,0,0,0,0,1,0,0,1,0,0,0,0,0,0,0,0,0,0,0,0,0,1,0,0,0,0,0,0,0,0,0,0,0,0,0,0,0,0,0,0,0,0,0,0,0
3576,"Forchstrasse 26, 8008 Zürich",3.5,85,47.363990783691406,8.556114196777344,0.8663350969967137,68.6,58.6,0.14165202787266543,1999,0,0,0,0,0,0,0,0,0,0,0,0,0,0,0,0,0,1,0,0,0,0,0,0,0,0,0,1,0,0,0,0,0,0,0,0,0,0,0,0,0,0,0,0,0,0,0,0,0,0,0
2485,"Birchstrasse 98, 8050 Zürich",1.0,64,47.407814025878906,8.536985397338867,0.9535364850874308,56.0,48.1,0.22158722997665328,1999,0,0,0,0,1,0,0,0,1,0,0,0,1,0,0,0,0,0,0,0,0,0,0,0,0,0,0,1,0,0,0,0,0,0,0,0,0,0,0,0,0,0,0,0,0,0,0,0,0,0,0
2630,"Regensbergstrasse 30, 8050 Zürich",3.5,78,47.404903411865234,8.554218292236328,1.0326229555059927,42.3,34.6,0.12276462463256606,1999,1,0,0,0,0,0,0,0,0,0,0,0,0,0,0,0,0,1,0,0,0,0,0,0,0,0,0,1,0,0,0,0,0,0,0,0,0,0,0,0,0,0,0,0,0,0,0,0,0,0,0
